%time,field.header.seq,field.header.stamp,field.header.frame_id,field.points0.x,field.points0.y,field.points0.z,field.points1.x,field.points1.y,field.points1.z,field.points2.x,field.points2.y,field.points2.z,field.points3.x,field.points3.y,field.points3.z,field.points4.x,field.points4.y,field.points4.z,field.points5.x,field.points5.y,field.points5.z,field.points6.x,field.points6.y,field.points6.z,field.points7.x,field.points7.y,field.points7.z,field.points8.x,field.points8.y,field.points8.z,field.points9.x,field.points9.y,field.points9.z,field.points10.x,field.points10.y,field.points10.z,field.points11.x,field.points11.y,field.points11.z,field.points12.x,field.points12.y,field.points12.z,field.points13.x,field.points13.y,field.points13.z,field.points14.x,field.points14.y,field.points14.z,field.points15.x,field.points15.y,field.points15.z
1451946425870423101,264,1451946425869790752,sonar_frame,0.0689999982715,5.1360001564,0.0,3.32793807983,3.94922232628,0.0,4.47812700272,2.57800006866,0.0,5.0900387764,0.895240902901,0.0,5.0900387764,-0.895240902901,0.0,3.44236063957,-1.98000001907,0.0,1.67533111572,-1.9797219038,0.0,0.0689999982715,-1.98000001907,0.0,0.0,0.0,0.0,0.0,0.0,0.0,0.0,0.0,0.0,0.0,0.0,0.0,0.0,0.0,0.0,0.0,0.0,0.0,0.0,0.0,0.0,0.0,0.0,0.0
1451946425970711850,265,1451946425969893465,sonar_frame,0.0689999982715,5.1360001564,0.0,3.32793807983,3.94922232628,0.0,4.47812700272,2.57800006866,0.0,5.0900387764,0.895240902901,0.0,5.0900387764,-0.895240902901,0.0,3.44236063957,-1.98000001907,0.0,1.67533111572,-1.9797219038,0.0,0.0689999982715,-1.98000001907,0.0,0.0,0.0,0.0,0.0,0.0,0.0,0.0,0.0,0.0,0.0,0.0,0.0,0.0,0.0,0.0,0.0,0.0,0.0,0.0,0.0,0.0,0.0,0.0,0.0
1451946426071493822,266,1451946426070513927,sonar_frame,0.0689999982715,5.1360001564,0.0,3.32793807983,3.94922232628,0.0,4.47812700272,2.57800006866,0.0,5.0900387764,0.895240902901,0.0,5.0900387764,-0.895240902901,0.0,3.44236063957,-1.98000001907,0.0,1.67533111572,-1.9797219038,0.0,0.0689999982715,-1.98000001907,0.0,0.0,0.0,0.0,0.0,0.0,0.0,0.0,0.0,0.0,0.0,0.0,0.0,0.0,0.0,0.0,0.0,0.0,0.0,0.0,0.0,0.0,0.0,0.0,0.0
1451946426172378359,267,1451946426171302826,sonar_frame,0.0689999982715,5.1360001564,0.0,3.32793807983,3.94922232628,0.0,4.47812700272,2.57800006866,0.0,5.0900387764,0.895240902901,0.0,5.0900387764,-0.895240902901,0.0,3.44236063957,-1.98000001907,0.0,1.67533111572,-1.9797219038,0.0,0.0689999982715,-1.98000001907,0.0,0.0,0.0,0.0,0.0,0.0,0.0,0.0,0.0,0.0,0.0,0.0,0.0,0.0,0.0,0.0,0.0,0.0,0.0,0.0,0.0,0.0,0.0,0.0,0.0
1451946426272080976,268,1451946426271366157,sonar_frame,0.0689999982715,5.1360001564,0.0,3.32793807983,3.94922232628,0.0,4.47812700272,2.57800006866,0.0,5.0900387764,0.895240902901,0.0,5.0900387764,-0.895240902901,0.0,3.44236063957,-1.98000001907,0.0,1.67533111572,-1.9797219038,0.0,0.0689999982715,-1.98000001907,0.0,0.0,0.0,0.0,0.0,0.0,0.0,0.0,0.0,0.0,0.0,0.0,0.0,0.0,0.0,0.0,0.0,0.0,0.0,0.0,0.0,0.0,0.0,0.0,0.0
1451946426372900540,269,1451946426371497620,sonar_frame,0.0689999982715,5.1360001564,0.0,3.32793807983,3.94922232628,0.0,4.47812700272,2.57800006866,0.0,5.0900387764,0.895240902901,0.0,5.0900387764,-0.895240902901,0.0,3.44236063957,-1.98000001907,0.0,1.67533111572,-1.9797219038,0.0,0.0689999982715,-1.98000001907,0.0,0.0,0.0,0.0,0.0,0.0,0.0,0.0,0.0,0.0,0.0,0.0,0.0,0.0,0.0,0.0,0.0,0.0,0.0,0.0,0.0,0.0,0.0,0.0,0.0
1451946426473849826,270,1451946426471502805,sonar_frame,0.0689999982715,5.1360001564,0.0,3.32793807983,3.94922232628,0.0,4.47812700272,2.57800006866,0.0,5.0900387764,0.895240902901,0.0,5.0900387764,-0.895240902901,0.0,3.44236063957,-1.98000001907,0.0,1.67533111572,-1.9797219038,0.0,0.0689999982715,-1.98000001907,0.0,0.0,0.0,0.0,0.0,0.0,0.0,0.0,0.0,0.0,0.0,0.0,0.0,0.0,0.0,0.0,0.0,0.0,0.0,0.0,0.0,0.0,0.0,0.0,0.0
1451946426573388892,271,1451946426572511250,sonar_frame,0.0689999982715,5.1360001564,0.0,3.32793807983,3.94922232628,0.0,4.47812700272,2.57800006866,0.0,5.0900387764,0.895240902901,0.0,5.0900387764,-0.895240902901,0.0,3.44236063957,-1.98000001907,0.0,1.67597389221,-1.9804879427,0.0,0.0689999982715,-1.98000001907,0.0,0.0,0.0,0.0,0.0,0.0,0.0,0.0,0.0,0.0,0.0,0.0,0.0,0.0,0.0,0.0,0.0,0.0,0.0,0.0,0.0,0.0,0.0,0.0,0.0
1451946426674730253,272,1451946426671705210,sonar_frame,0.0689999982715,5.1360001564,0.0,3.32793807983,3.94922232628,0.0,4.47812700272,2.57800006866,0.0,5.0900387764,0.895240902901,0.0,5.0900387764,-0.895240902901,0.0,3.44236063957,-1.98000001907,0.0,1.67533111572,-1.9797219038,0.0,0.0689999982715,-1.98000001907,0.0,0.0,0.0,0.0,0.0,0.0,0.0,0.0,0.0,0.0,0.0,0.0,0.0,0.0,0.0,0.0,0.0,0.0,0.0,0.0,0.0,0.0,0.0,0.0,0.0
1451946426773342805,273,1451946426772593103,sonar_frame,0.0689999982715,5.1360001564,0.0,3.32793807983,3.94922232628,0.0,4.47812700272,2.57800006866,0.0,5.0900387764,0.895240902901,0.0,5.0900387764,-0.895240902901,0.0,3.44236063957,-1.98000001907,0.0,1.67533111572,-1.9797219038,0.0,0.0689999982715,-1.98000001907,0.0,0.0,0.0,0.0,0.0,0.0,0.0,0.0,0.0,0.0,0.0,0.0,0.0,0.0,0.0,0.0,0.0,0.0,0.0,0.0,0.0,0.0,0.0,0.0,0.0
1451946426873358078,274,1451946426872797348,sonar_frame,0.0689999982715,5.1360001564,0.0,3.32793807983,3.94922232628,0.0,4.47812700272,2.57800006866,0.0,5.0900387764,0.895240902901,0.0,5.0900387764,-0.895240902901,0.0,3.44236063957,-1.98000001907,0.0,1.67533111572,-1.9797219038,0.0,0.0689999982715,-1.98000001907,0.0,0.0,0.0,0.0,0.0,0.0,0.0,0.0,0.0,0.0,0.0,0.0,0.0,0.0,0.0,0.0,0.0,0.0,0.0,0.0,0.0,0.0,0.0,0.0,0.0
1451946426974595325,275,1451946426973207112,sonar_frame,0.0689999982715,5.1360001564,0.0,3.32793807983,3.94922232628,0.0,4.47812700272,2.57800006866,0.0,5.0900387764,0.895240902901,0.0,5.0900387764,-0.895240902901,0.0,3.44236063957,-1.98000001907,0.0,1.67533111572,-1.9797219038,0.0,0.0689999982715,-1.98000001907,0.0,0.0,0.0,0.0,0.0,0.0,0.0,0.0,0.0,0.0,0.0,0.0,0.0,0.0,0.0,0.0,0.0,0.0,0.0,0.0,0.0,0.0,0.0,0.0,0.0
1451946427073023207,276,1451946427072624562,sonar_frame,0.0689999982715,5.1360001564,0.0,3.32793807983,3.94922232628,0.0,4.47812700272,2.57800006866,0.0,5.0900387764,0.895240902901,0.0,5.0900387764,-0.895240902901,0.0,3.44236063957,-1.98000001907,0.0,1.67597389221,-1.9804879427,0.0,0.0689999982715,-1.98000001907,0.0,0.0,0.0,0.0,0.0,0.0,0.0,0.0,0.0,0.0,0.0,0.0,0.0,0.0,0.0,0.0,0.0,0.0,0.0,0.0,0.0,0.0,0.0,0.0,0.0
1451946427173573668,277,1451946427172614075,sonar_frame,0.0689999982715,5.1360001564,0.0,3.32793807983,3.94922232628,0.0,4.47812700272,2.57800006866,0.0,5.0900387764,0.895240902901,0.0,5.0900387764,-0.895240902901,0.0,3.44236063957,-1.98000001907,0.0,1.67533111572,-1.9797219038,0.0,0.0689999982715,-1.98000001907,0.0,0.0,0.0,0.0,0.0,0.0,0.0,0.0,0.0,0.0,0.0,0.0,0.0,0.0,0.0,0.0,0.0,0.0,0.0,0.0,0.0,0.0,0.0,0.0,0.0
1451946427274149546,278,1451946427273169611,sonar_frame,0.0689999982715,5.1360001564,0.0,3.32793807983,3.94922232628,0.0,4.47812700272,2.57800006866,0.0,5.0900387764,0.895240902901,0.0,5.0900387764,-0.895240902901,0.0,3.44236063957,-1.98000001907,0.0,1.67533111572,-1.9797219038,0.0,0.0689999982715,-1.98000001907,0.0,0.0,0.0,0.0,0.0,0.0,0.0,0.0,0.0,0.0,0.0,0.0,0.0,0.0,0.0,0.0,0.0,0.0,0.0,0.0,0.0,0.0,0.0,0.0,0.0
1451946427373251073,279,1451946427372713666,sonar_frame,0.0689999982715,5.1360001564,0.0,3.32793807983,3.94922232628,0.0,4.47812700272,2.57800006866,0.0,5.0900387764,0.895240902901,0.0,5.0900387764,-0.895240902901,0.0,3.44236063957,-1.98000001907,0.0,1.67533111572,-1.9797219038,0.0,0.0689999982715,-1.98000001907,0.0,0.0,0.0,0.0,0.0,0.0,0.0,0.0,0.0,0.0,0.0,0.0,0.0,0.0,0.0,0.0,0.0,0.0,0.0,0.0,0.0,0.0,0.0,0.0,0.0
1451946427474155076,280,1451946427473288473,sonar_frame,0.0689999982715,5.1360001564,0.0,3.32793807983,3.94922232628,0.0,4.47812700272,2.57800006866,0.0,5.0900387764,0.895240902901,0.0,5.0900387764,-0.895240902901,0.0,3.44236063957,-1.98000001907,0.0,1.67533111572,-1.9797219038,0.0,0.0689999982715,-1.98000001907,0.0,0.0,0.0,0.0,0.0,0.0,0.0,0.0,0.0,0.0,0.0,0.0,0.0,0.0,0.0,0.0,0.0,0.0,0.0,0.0,0.0,0.0,0.0,0.0,0.0
1451946427574555289,281,1451946427573336624,sonar_frame,0.0689999982715,5.1360001564,0.0,3.32793807983,3.94922232628,0.0,4.47812700272,2.57800006866,0.0,5.0900387764,0.895240902901,0.0,5.0900387764,-0.895240902901,0.0,3.44236063957,-1.98000001907,0.0,1.67533111572,-1.9797219038,0.0,0.0689999982715,-1.98000001907,0.0,0.0,0.0,0.0,0.0,0.0,0.0,0.0,0.0,0.0,0.0,0.0,0.0,0.0,0.0,0.0,0.0,0.0,0.0,0.0,0.0,0.0,0.0,0.0,0.0
1451946427673902720,282,1451946427673001680,sonar_frame,0.0689999982715,5.1360001564,0.0,3.32793807983,3.94922232628,0.0,4.47812700272,2.57800006866,0.0,5.0900387764,0.895240902901,0.0,5.0900387764,-0.895240902901,0.0,3.44236063957,-1.98000001907,0.0,1.67597389221,-1.9804879427,0.0,0.0689999982715,-1.98000001907,0.0,0.0,0.0,0.0,0.0,0.0,0.0,0.0,0.0,0.0,0.0,0.0,0.0,0.0,0.0,0.0,0.0,0.0,0.0,0.0,0.0,0.0,0.0,0.0,0.0
1451946427773421937,283,1451946427772755401,sonar_frame,0.0689999982715,5.1360001564,0.0,3.32793807983,3.94922232628,0.0,4.47812700272,2.57800006866,0.0,5.0900387764,0.895240902901,0.0,5.0900387764,-0.895240902901,0.0,3.44236063957,-1.98000001907,0.0,1.67533111572,-1.9797219038,0.0,0.0689999982715,-1.98000001907,0.0,0.0,0.0,0.0,0.0,0.0,0.0,0.0,0.0,0.0,0.0,0.0,0.0,0.0,0.0,0.0,0.0,0.0,0.0,0.0,0.0,0.0,0.0,0.0,0.0
1451946427873697100,284,1451946427873122781,sonar_frame,0.0689999982715,5.1360001564,0.0,3.32793807983,3.94922232628,0.0,4.47812700272,2.57800006866,0.0,5.0900387764,0.895240902901,0.0,5.0900387764,-0.895240902901,0.0,3.44236063957,-1.98000001907,0.0,1.67533111572,-1.9797219038,0.0,0.0689999982715,-1.98000001907,0.0,0.0,0.0,0.0,0.0,0.0,0.0,0.0,0.0,0.0,0.0,0.0,0.0,0.0,0.0,0.0,0.0,0.0,0.0,0.0,0.0,0.0,0.0,0.0,0.0
1451946427973991197,285,1451946427973231640,sonar_frame,0.0689999982715,5.1360001564,0.0,3.32793807983,3.94922232628,0.0,4.47812700272,2.57800006866,0.0,5.0900387764,0.895240902901,0.0,5.0900387764,-0.895240902901,0.0,3.44236063957,-1.98000001907,0.0,1.67533111572,-1.9797219038,0.0,0.0689999982715,-1.98000001907,0.0,0.0,0.0,0.0,0.0,0.0,0.0,0.0,0.0,0.0,0.0,0.0,0.0,0.0,0.0,0.0,0.0,0.0,0.0,0.0,0.0,0.0,0.0,0.0,0.0
1451946428073575897,286,1451946428072719197,sonar_frame,0.0689999982715,5.1360001564,0.0,3.32793807983,3.94922232628,0.0,4.47812700272,2.57800006866,0.0,5.0900387764,0.895240902901,0.0,5.0900387764,-0.895240902901,0.0,3.44236063957,-1.98000001907,0.0,1.67533111572,-1.9797219038,0.0,0.0689999982715,-1.98000001907,0.0,0.0,0.0,0.0,0.0,0.0,0.0,0.0,0.0,0.0,0.0,0.0,0.0,0.0,0.0,0.0,0.0,0.0,0.0,0.0,0.0,0.0,0.0,0.0,0.0
1451946428174107503,287,1451946428172827249,sonar_frame,0.0689999982715,5.1360001564,0.0,3.32793807983,3.94922232628,0.0,4.47812700272,2.57800006866,0.0,5.0900387764,0.895240902901,0.0,5.0900387764,-0.895240902901,0.0,3.44236063957,-1.98000001907,0.0,1.67533111572,-1.9797219038,0.0,0.0689999982715,-1.98000001907,0.0,0.0,0.0,0.0,0.0,0.0,0.0,0.0,0.0,0.0,0.0,0.0,0.0,0.0,0.0,0.0,0.0,0.0,0.0,0.0,0.0,0.0,0.0,0.0,0.0
1451946428273786142,288,1451946428272986254,sonar_frame,0.0689999982715,5.1360001564,0.0,3.32793807983,3.94922232628,0.0,4.47812700272,2.57800006866,0.0,5.0900387764,0.895240902901,0.0,5.0900387764,-0.895240902901,0.0,3.44236063957,-1.98000001907,0.0,1.67533111572,-1.9797219038,0.0,0.0689999982715,-1.98000001907,0.0,0.0,0.0,0.0,0.0,0.0,0.0,0.0,0.0,0.0,0.0,0.0,0.0,0.0,0.0,0.0,0.0,0.0,0.0,0.0,0.0,0.0,0.0,0.0,0.0
1451946428374098336,289,1451946428373494642,sonar_frame,0.0689999982715,5.1360001564,0.0,3.32793807983,3.94922232628,0.0,4.47812700272,2.57800006866,0.0,5.0900387764,0.895240902901,0.0,5.0900387764,-0.895240902901,0.0,3.44236063957,-1.98000001907,0.0,1.67533111572,-1.9797219038,0.0,0.0689999982715,-1.98000001907,0.0,0.0,0.0,0.0,0.0,0.0,0.0,0.0,0.0,0.0,0.0,0.0,0.0,0.0,0.0,0.0,0.0,0.0,0.0,0.0,0.0,0.0,0.0,0.0,0.0
1451946428474548112,290,1451946428473676002,sonar_frame,0.0689999982715,5.1360001564,0.0,3.32793807983,3.94922232628,0.0,4.47812700272,2.57800006866,0.0,5.0900387764,0.895240902901,0.0,5.0900387764,-0.895240902901,0.0,3.44236063957,-1.98000001907,0.0,1.67533111572,-1.9797219038,0.0,0.0689999982715,-1.98000001907,0.0,0.0,0.0,0.0,0.0,0.0,0.0,0.0,0.0,0.0,0.0,0.0,0.0,0.0,0.0,0.0,0.0,0.0,0.0,0.0,0.0,0.0,0.0,0.0,0.0
1451946428574929164,291,1451946428573898613,sonar_frame,0.0689999982715,5.1360001564,0.0,3.32793807983,3.94922232628,0.0,4.47812700272,2.57800006866,0.0,5.0900387764,0.895240902901,0.0,5.0900387764,-0.895240902901,0.0,3.44236063957,-1.98000001907,0.0,1.67533111572,-1.9797219038,0.0,0.0689999982715,-1.98000001907,0.0,0.0,0.0,0.0,0.0,0.0,0.0,0.0,0.0,0.0,0.0,0.0,0.0,0.0,0.0,0.0,0.0,0.0,0.0,0.0,0.0,0.0,0.0,0.0,0.0
1451946428675228246,292,1451946428673823749,sonar_frame,0.0689999982715,5.1360001564,0.0,3.32793807983,3.94922232628,0.0,4.47812700272,2.57800006866,0.0,5.0900387764,0.895240902901,0.0,5.0900387764,-0.895240902901,0.0,3.44236063957,-1.98000001907,0.0,1.67597389221,-1.9804879427,0.0,0.0689999982715,-1.98000001907,0.0,0.0,0.0,0.0,0.0,0.0,0.0,0.0,0.0,0.0,0.0,0.0,0.0,0.0,0.0,0.0,0.0,0.0,0.0,0.0,0.0,0.0,0.0,0.0,0.0
1451946428776489336,293,1451946428774014690,sonar_frame,0.0689999982715,5.1360001564,0.0,3.32793807983,3.94922232628,0.0,4.47812700272,2.57800006866,0.0,5.0900387764,0.895240902901,0.0,5.0900387764,-0.895240902901,0.0,3.44236063957,-1.98000001907,0.0,1.67533111572,-1.9797219038,0.0,0.0689999982715,-1.98000001907,0.0,0.0,0.0,0.0,0.0,0.0,0.0,0.0,0.0,0.0,0.0,0.0,0.0,0.0,0.0,0.0,0.0,0.0,0.0,0.0,0.0,0.0,0.0,0.0,0.0
1451946428875361843,294,1451946428874464354,sonar_frame,0.0689999982715,5.1360001564,0.0,3.32793807983,3.94922232628,0.0,4.47812700272,2.57800006866,0.0,5.0900387764,0.895240902901,0.0,5.0900387764,-0.895240902901,0.0,3.44236063957,-1.98000001907,0.0,1.67533111572,-1.9797219038,0.0,0.0689999982715,-1.98000001907,0.0,0.0,0.0,0.0,0.0,0.0,0.0,0.0,0.0,0.0,0.0,0.0,0.0,0.0,0.0,0.0,0.0,0.0,0.0,0.0,0.0,0.0,0.0,0.0,0.0
1451946428975349255,295,1451946428974360775,sonar_frame,0.0689999982715,5.1360001564,0.0,3.32793807983,3.94922232628,0.0,4.47812700272,2.57800006866,0.0,5.0900387764,0.895240902901,0.0,5.0900387764,-0.895240902901,0.0,3.44236063957,-1.98000001907,0.0,1.67533111572,-1.9797219038,0.0,0.0689999982715,-1.98000001907,0.0,0.0,0.0,0.0,0.0,0.0,0.0,0.0,0.0,0.0,0.0,0.0,0.0,0.0,0.0,0.0,0.0,0.0,0.0,0.0,0.0,0.0,0.0,0.0,0.0
1451946429074683024,296,1451946429074077878,sonar_frame,0.0689999982715,5.1360001564,0.0,3.32793807983,3.94922232628,0.0,4.47812700272,2.57800006866,0.0,5.0900387764,0.895240902901,0.0,5.0900387764,-0.895240902901,0.0,3.44236063957,-1.98000001907,0.0,1.67533111572,-1.9797219038,0.0,0.0689999982715,-1.98000001907,0.0,0.0,0.0,0.0,0.0,0.0,0.0,0.0,0.0,0.0,0.0,0.0,0.0,0.0,0.0,0.0,0.0,0.0,0.0,0.0,0.0,0.0,0.0,0.0,0.0
1451946429175182117,297,1451946429174267223,sonar_frame,0.0689999982715,5.1360001564,0.0,3.32793807983,3.94922232628,0.0,4.47812700272,2.57800006866,0.0,5.0900387764,0.895240902901,0.0,5.0900387764,-0.895240902901,0.0,3.44236063957,-1.98000001907,0.0,1.67533111572,-1.9797219038,0.0,0.0689999982715,-1.98000001907,0.0,0.0,0.0,0.0,0.0,0.0,0.0,0.0,0.0,0.0,0.0,0.0,0.0,0.0,0.0,0.0,0.0,0.0,0.0,0.0,0.0,0.0,0.0,0.0,0.0
1451946429275217320,298,1451946429274348380,sonar_frame,0.0689999982715,5.1360001564,0.0,3.32793807983,3.94922232628,0.0,4.47812700272,2.57800006866,0.0,5.0900387764,0.895240902901,0.0,5.0900387764,-0.895240902901,0.0,3.44236063957,-1.98000001907,0.0,1.67533111572,-1.9797219038,0.0,0.0689999982715,-1.98000001907,0.0,0.0,0.0,0.0,0.0,0.0,0.0,0.0,0.0,0.0,0.0,0.0,0.0,0.0,0.0,0.0,0.0,0.0,0.0,0.0,0.0,0.0,0.0,0.0,0.0
1451946429375059079,299,1451946429374322218,sonar_frame,0.0689999982715,5.1360001564,0.0,3.32793807983,3.94922232628,0.0,4.47812700272,2.57800006866,0.0,5.0900387764,0.895240902901,0.0,5.0900387764,-0.895240902901,0.0,3.44236063957,-1.98000001907,0.0,1.67533111572,-1.9797219038,0.0,0.0689999982715,-1.98000001907,0.0,0.0,0.0,0.0,0.0,0.0,0.0,0.0,0.0,0.0,0.0,0.0,0.0,0.0,0.0,0.0,0.0,0.0,0.0,0.0,0.0,0.0,0.0,0.0,0.0
1451946429474713144,300,1451946429474087921,sonar_frame,0.0689999982715,5.1360001564,0.0,3.32793807983,3.94922232628,0.0,4.47812700272,2.57800006866,0.0,5.0900387764,0.895240902901,0.0,5.0900387764,-0.895240902901,0.0,3.44236063957,-1.98000001907,0.0,1.67597389221,-1.9804879427,0.0,0.0689999982715,-1.98000001907,0.0,0.0,0.0,0.0,0.0,0.0,0.0,0.0,0.0,0.0,0.0,0.0,0.0,0.0,0.0,0.0,0.0,0.0,0.0,0.0,0.0,0.0,0.0,0.0,0.0
1451946429574756530,301,1451946429574040818,sonar_frame,0.0689999982715,5.1360001564,0.0,3.32793807983,3.94922232628,0.0,4.47812700272,2.57800006866,0.0,5.0900387764,0.895240902901,0.0,5.0900387764,-0.895240902901,0.0,3.44236063957,-1.98000001907,0.0,1.67533111572,-1.9797219038,0.0,0.0689999982715,-1.98000001907,0.0,0.0,0.0,0.0,0.0,0.0,0.0,0.0,0.0,0.0,0.0,0.0,0.0,0.0,0.0,0.0,0.0,0.0,0.0,0.0,0.0,0.0,0.0,0.0,0.0
1451946429675253920,302,1451946429674415006,sonar_frame,0.0689999982715,5.1360001564,0.0,3.32793807983,3.94922232628,0.0,4.47812700272,2.57800006866,0.0,5.0900387764,0.895240902901,0.0,5.0900387764,-0.895240902901,0.0,3.44236063957,-1.98000001907,0.0,1.67533111572,-1.9797219038,0.0,0.0689999982715,-1.98000001907,0.0,0.0,0.0,0.0,0.0,0.0,0.0,0.0,0.0,0.0,0.0,0.0,0.0,0.0,0.0,0.0,0.0,0.0,0.0,0.0,0.0,0.0,0.0,0.0,0.0
1451946429774893548,303,1451946429773995284,sonar_frame,0.0689999982715,5.1360001564,0.0,3.32793807983,3.94922232628,0.0,4.47812700272,2.57800006866,0.0,5.0900387764,0.895240902901,0.0,5.0900387764,-0.895240902901,0.0,3.44236063957,-1.98000001907,0.0,1.67533111572,-1.9797219038,0.0,0.0689999982715,-1.98000001907,0.0,0.0,0.0,0.0,0.0,0.0,0.0,0.0,0.0,0.0,0.0,0.0,0.0,0.0,0.0,0.0,0.0,0.0,0.0,0.0,0.0,0.0,0.0,0.0,0.0
1451946429874837692,304,1451946429873922832,sonar_frame,0.0689999982715,5.1360001564,0.0,3.32793807983,3.94922232628,0.0,4.47812700272,2.57800006866,0.0,5.0900387764,0.895240902901,0.0,5.0900387764,-0.895240902901,0.0,3.44236063957,-1.98000001907,0.0,1.67533111572,-1.9797219038,0.0,0.0689999982715,-1.98000001907,0.0,0.0,0.0,0.0,0.0,0.0,0.0,0.0,0.0,0.0,0.0,0.0,0.0,0.0,0.0,0.0,0.0,0.0,0.0,0.0,0.0,0.0,0.0,0.0,0.0
1451946429975426815,305,1451946429974548258,sonar_frame,0.0689999982715,5.1360001564,0.0,3.32793807983,3.94922232628,0.0,4.47812700272,2.57800006866,0.0,5.0900387764,0.895240902901,0.0,5.0900387764,-0.895240902901,0.0,3.44236063957,-1.98000001907,0.0,1.67533111572,-1.9797219038,0.0,0.0689999982715,-1.98000001907,0.0,0.0,0.0,0.0,0.0,0.0,0.0,0.0,0.0,0.0,0.0,0.0,0.0,0.0,0.0,0.0,0.0,0.0,0.0,0.0,0.0,0.0,0.0,0.0,0.0
1451946430077169695,306,1451946430075177015,sonar_frame,0.0689999982715,5.1360001564,0.0,3.32793807983,3.94922232628,0.0,4.47812700272,2.57800006866,0.0,5.0900387764,0.895240902901,0.0,5.0900387764,-0.895240902901,0.0,3.44236063957,-1.98000001907,0.0,1.67533111572,-1.9797219038,0.0,0.0689999982715,-1.98000001907,0.0,0.0,0.0,0.0,0.0,0.0,0.0,0.0,0.0,0.0,0.0,0.0,0.0,0.0,0.0,0.0,0.0,0.0,0.0,0.0,0.0,0.0,0.0,0.0,0.0
1451946430176310951,307,1451946430175256450,sonar_frame,0.0689999982715,5.1360001564,0.0,3.32793807983,3.94922232628,0.0,4.47812700272,2.57800006866,0.0,5.0900387764,0.895240902901,0.0,5.0900387764,-0.895240902901,0.0,3.44236063957,-1.98000001907,0.0,1.67597389221,-1.9804879427,0.0,0.0689999982715,-1.98000001907,0.0,0.0,0.0,0.0,0.0,0.0,0.0,0.0,0.0,0.0,0.0,0.0,0.0,0.0,0.0,0.0,0.0,0.0,0.0,0.0,0.0,0.0,0.0,0.0,0.0
1451946430276497734,308,1451946430275080161,sonar_frame,0.0689999982715,5.1360001564,0.0,3.32793807983,3.94922232628,0.0,4.47812700272,2.57800006866,0.0,5.0900387764,0.895240902901,0.0,5.0900387764,-0.895240902901,0.0,3.44236063957,-1.98000001907,0.0,1.67597389221,-1.9804879427,0.0,0.0689999982715,-1.98000001907,0.0,0.0,0.0,0.0,0.0,0.0,0.0,0.0,0.0,0.0,0.0,0.0,0.0,0.0,0.0,0.0,0.0,0.0,0.0,0.0,0.0,0.0,0.0,0.0,0.0
1451946430375562872,309,1451946430374944514,sonar_frame,0.0689999982715,5.1360001564,0.0,3.32793807983,3.94922232628,0.0,4.47812700272,2.57800006866,0.0,5.0900387764,0.895240902901,0.0,5.0900387764,-0.895240902901,0.0,3.44236063957,-1.98000001907,0.0,1.67533111572,-1.9797219038,0.0,0.0689999982715,-1.98000001907,0.0,0.0,0.0,0.0,0.0,0.0,0.0,0.0,0.0,0.0,0.0,0.0,0.0,0.0,0.0,0.0,0.0,0.0,0.0,0.0,0.0,0.0,0.0,0.0,0.0
1451946430475808807,310,1451946430475075462,sonar_frame,0.0689999982715,5.1360001564,0.0,3.32793807983,3.94922232628,0.0,4.47812700272,2.57800006866,0.0,5.0900387764,0.895240902901,0.0,5.0900387764,-0.895240902901,0.0,3.44236063957,-1.98000001907,0.0,1.67533111572,-1.9797219038,0.0,0.0689999982715,-1.98000001907,0.0,0.0,0.0,0.0,0.0,0.0,0.0,0.0,0.0,0.0,0.0,0.0,0.0,0.0,0.0,0.0,0.0,0.0,0.0,0.0,0.0,0.0,0.0,0.0,0.0
1451946430576452055,311,1451946430575535328,sonar_frame,0.0689999982715,5.1360001564,0.0,3.32793807983,3.94922232628,0.0,4.47812700272,2.57800006866,0.0,5.0900387764,0.895240902901,0.0,5.0900387764,-0.895240902901,0.0,3.44236063957,-1.98000001907,0.0,1.67533111572,-1.9797219038,0.0,0.0689999982715,-1.98000001907,0.0,0.0,0.0,0.0,0.0,0.0,0.0,0.0,0.0,0.0,0.0,0.0,0.0,0.0,0.0,0.0,0.0,0.0,0.0,0.0,0.0,0.0,0.0,0.0,0.0
1451946430677114219,312,1451946430676439133,sonar_frame,0.0689999982715,5.1360001564,0.0,3.32793807983,3.94922232628,0.0,4.47812700272,2.57800006866,0.0,5.0900387764,0.895240902901,0.0,5.0900387764,-0.895240902901,0.0,3.44236063957,-1.98000001907,0.0,1.67533111572,-1.9797219038,0.0,0.0689999982715,-1.98000001907,0.0,0.0,0.0,0.0,0.0,0.0,0.0,0.0,0.0,0.0,0.0,0.0,0.0,0.0,0.0,0.0,0.0,0.0,0.0,0.0,0.0,0.0,0.0,0.0,0.0
1451946430777363945,313,1451946430776442066,sonar_frame,0.0689999982715,5.1360001564,0.0,3.32793807983,3.94922232628,0.0,4.47812700272,2.57800006866,0.0,5.0900387764,0.895240902901,0.0,5.0900387764,-0.895240902901,0.0,3.44236063957,-1.98000001907,0.0,1.67533111572,-1.9797219038,0.0,0.0689999982715,-1.98000001907,0.0,0.0,0.0,0.0,0.0,0.0,0.0,0.0,0.0,0.0,0.0,0.0,0.0,0.0,0.0,0.0,0.0,0.0,0.0,0.0,0.0,0.0,0.0,0.0,0.0
1451946430878110814,314,1451946430876347330,sonar_frame,0.0689999982715,5.1360001564,0.0,3.32793807983,3.94922232628,0.0,4.47812700272,2.57800006866,0.0,5.0900387764,0.895240902901,0.0,5.0900387764,-0.895240902901,0.0,3.44236063957,-1.98000001907,0.0,1.67533111572,-1.9797219038,0.0,0.0689999982715,-1.98000001907,0.0,0.0,0.0,0.0,0.0,0.0,0.0,0.0,0.0,0.0,0.0,0.0,0.0,0.0,0.0,0.0,0.0,0.0,0.0,0.0,0.0,0.0,0.0,0.0,0.0
1451946430976662065,315,1451946430976074004,sonar_frame,0.0689999982715,5.1360001564,0.0,3.32793807983,3.94922232628,0.0,4.47812700272,2.57800006866,0.0,5.0900387764,0.895240902901,0.0,5.0900387764,-0.895240902901,0.0,3.44236063957,-1.98000001907,0.0,1.67533111572,-1.9797219038,0.0,0.0689999982715,-1.98000001907,0.0,0.0,0.0,0.0,0.0,0.0,0.0,0.0,0.0,0.0,0.0,0.0,0.0,0.0,0.0,0.0,0.0,0.0,0.0,0.0,0.0,0.0,0.0,0.0,0.0
1451946431077137234,316,1451946431076351449,sonar_frame,0.0689999982715,5.1360001564,0.0,3.32793807983,3.94922232628,0.0,4.47812700272,2.57800006866,0.0,5.0900387764,0.895240902901,0.0,5.0900387764,-0.895240902901,0.0,3.44236063957,-1.98000001907,0.0,1.67597389221,-1.9804879427,0.0,0.0689999982715,-1.98000001907,0.0,0.0,0.0,0.0,0.0,0.0,0.0,0.0,0.0,0.0,0.0,0.0,0.0,0.0,0.0,0.0,0.0,0.0,0.0,0.0,0.0,0.0,0.0,0.0,0.0
1451946431176893708,317,1451946431175733714,sonar_frame,0.0689999982715,5.1360001564,0.0,3.32793807983,3.94922232628,0.0,4.47812700272,2.57800006866,0.0,5.0900387764,0.895240902901,0.0,5.0900387764,-0.895240902901,0.0,3.44236063957,-1.98000001907,0.0,1.67533111572,-1.9797219038,0.0,0.0689999982715,-1.98000001907,0.0,0.0,0.0,0.0,0.0,0.0,0.0,0.0,0.0,0.0,0.0,0.0,0.0,0.0,0.0,0.0,0.0,0.0,0.0,0.0,0.0,0.0,0.0,0.0,0.0
1451946431276807277,318,1451946431275956085,sonar_frame,0.0689999982715,5.1360001564,0.0,3.32793807983,3.94922232628,0.0,4.47812700272,2.57800006866,0.0,5.0900387764,0.895240902901,0.0,5.0900387764,-0.895240902901,0.0,3.44236063957,-1.98000001907,0.0,1.67533111572,-1.9797219038,0.0,0.0689999982715,-1.98000001907,0.0,0.0,0.0,0.0,0.0,0.0,0.0,0.0,0.0,0.0,0.0,0.0,0.0,0.0,0.0,0.0,0.0,0.0,0.0,0.0,0.0,0.0,0.0,0.0,0.0
1451946431377261577,319,1451946431376530146,sonar_frame,0.0689999982715,5.1360001564,0.0,3.32793807983,3.94922232628,0.0,4.47812700272,2.57800006866,0.0,5.0900387764,0.895240902901,0.0,5.0900387764,-0.895240902901,0.0,3.44236063957,-1.98000001907,0.0,1.67533111572,-1.9797219038,0.0,0.0689999982715,-1.98000001907,0.0,0.0,0.0,0.0,0.0,0.0,0.0,0.0,0.0,0.0,0.0,0.0,0.0,0.0,0.0,0.0,0.0,0.0,0.0,0.0,0.0,0.0,0.0,0.0,0.0
1451946431478148065,320,1451946431477555088,sonar_frame,0.0689999982715,5.1360001564,0.0,3.32793807983,3.94922232628,0.0,4.47812700272,2.57800006866,0.0,5.0900387764,0.895240902901,0.0,5.0900387764,-0.895240902901,0.0,3.44236063957,-1.98000001907,0.0,1.67533111572,-1.9797219038,0.0,0.0689999982715,-1.98000001907,0.0,0.0,0.0,0.0,0.0,0.0,0.0,0.0,0.0,0.0,0.0,0.0,0.0,0.0,0.0,0.0,0.0,0.0,0.0,0.0,0.0,0.0,0.0,0.0,0.0
1451946431579917644,321,1451946431578524800,sonar_frame,0.0689999982715,5.1360001564,0.0,3.32793807983,3.94922232628,0.0,4.47812700272,2.57800006866,0.0,5.0900387764,0.895240902901,0.0,5.0900387764,-0.895240902901,0.0,3.44236063957,-1.98000001907,0.0,1.67533111572,-1.9797219038,0.0,0.0689999982715,-1.98000001907,0.0,0.0,0.0,0.0,0.0,0.0,0.0,0.0,0.0,0.0,0.0,0.0,0.0,0.0,0.0,0.0,0.0,0.0,0.0,0.0,0.0,0.0,0.0,0.0,0.0
1451946431679523766,322,1451946431678977544,sonar_frame,0.0689999982715,5.1360001564,0.0,3.32793807983,3.94922232628,0.0,4.47812700272,2.57800006866,0.0,5.0900387764,0.895240902901,0.0,5.0900387764,-0.895240902901,0.0,3.44236063957,-1.98000001907,0.0,1.67533111572,-1.9797219038,0.0,0.0689999982715,-1.98000001907,0.0,0.0,0.0,0.0,0.0,0.0,0.0,0.0,0.0,0.0,0.0,0.0,0.0,0.0,0.0,0.0,0.0,0.0,0.0,0.0,0.0,0.0,0.0,0.0,0.0
1451946431780477889,323,1451946431779328940,sonar_frame,0.0689999982715,5.1360001564,0.0,3.32793807983,3.94922232628,0.0,4.47812700272,2.57800006866,0.0,5.0900387764,0.895240902901,0.0,5.0900387764,-0.895240902901,0.0,3.44236063957,-1.98000001907,0.0,1.67533111572,-1.9797219038,0.0,0.0689999982715,-1.98000001907,0.0,0.0,0.0,0.0,0.0,0.0,0.0,0.0,0.0,0.0,0.0,0.0,0.0,0.0,0.0,0.0,0.0,0.0,0.0,0.0,0.0,0.0,0.0,0.0,0.0
1451946431880203811,324,1451946431879439201,sonar_frame,0.0689999982715,5.1360001564,0.0,3.32793807983,3.94922232628,0.0,4.47812700272,2.57800006866,0.0,5.0900387764,0.895240902901,0.0,5.0900387764,-0.895240902901,0.0,3.44236063957,-1.98000001907,0.0,1.67533111572,-1.9797219038,0.0,0.0689999982715,-1.98000001907,0.0,0.0,0.0,0.0,0.0,0.0,0.0,0.0,0.0,0.0,0.0,0.0,0.0,0.0,0.0,0.0,0.0,0.0,0.0,0.0,0.0,0.0,0.0,0.0,0.0
1451946431979427000,325,1451946431978661179,sonar_frame,0.0689999982715,5.1360001564,0.0,3.32793807983,3.94922232628,0.0,4.47812700272,2.57800006866,0.0,5.0900387764,0.895240902901,0.0,5.0900387764,-0.895240902901,0.0,3.54888176918,-2.04150009155,0.0,1.70039987564,-2.00959777832,0.0,0.0689999982715,-1.98099994659,0.0,0.0,0.0,0.0,0.0,0.0,0.0,0.0,0.0,0.0,0.0,0.0,0.0,0.0,0.0,0.0,0.0,0.0,0.0,0.0,0.0,0.0,0.0,0.0,0.0
1451946432079286400,326,1451946432078596786,sonar_frame,0.0689999982715,5.1360001564,0.0,3.32793807983,3.94922232628,0.0,4.47812700272,2.57800006866,0.0,5.0900387764,0.895240902901,0.0,5.0900387764,-0.895240902901,0.0,3.67705345154,-2.1154999733,0.0,1.72996807098,-2.04483580589,0.0,0.0689999982715,-1.98399996758,0.0,0.0,0.0,0.0,0.0,0.0,0.0,0.0,0.0,0.0,0.0,0.0,0.0,0.0,0.0,0.0,0.0,0.0,0.0,0.0,0.0,0.0,0.0,0.0,0.0
1451946432179881791,327,1451946432178691013,sonar_frame,0.0689999982715,5.1360001564,0.0,3.32793807983,3.94922232628,0.0,4.47812700272,2.57800006866,0.0,5.0900387764,0.895240902901,0.0,5.0900387764,-0.895240902901,0.0,3.81734967232,-2.19650006294,0.0,1.76146459579,-2.08237195015,0.0,0.0689999982715,-1.98699998856,0.0,0.0,0.0,0.0,0.0,0.0,0.0,0.0,0.0,0.0,0.0,0.0,0.0,0.0,0.0,0.0,0.0,0.0,0.0,0.0,0.0,0.0,0.0,0.0,0.0
1451946432279951660,328,1451946432278740924,sonar_frame,0.0689999982715,5.1360001564,0.0,3.32793807983,3.94922232628,0.0,4.47812700272,2.57800006866,0.0,5.0900387764,0.895240902901,0.0,5.0900387764,-0.895240902901,0.0,3.9697701931,-2.28449988365,0.0,1.79424679279,-2.1214401722,0.0,0.0689999982715,-1.99199998379,0.0,0.0,0.0,0.0,0.0,0.0,0.0,0.0,0.0,0.0,0.0,0.0,0.0,0.0,0.0,0.0,0.0,0.0,0.0,0.0,0.0,0.0,0.0,0.0,0.0
1451946432379714289,329,1451946432378724349,sonar_frame,0.0689999982715,5.1360001564,0.0,3.32793807983,3.94922232628,0.0,4.47812700272,2.57800006866,0.0,5.0900387764,0.895240902901,0.0,5.0900387764,-0.895240902901,0.0,4.13604688644,-2.3805000782,0.0,1.82895731926,-2.16280651093,0.0,0.0689999982715,-1.99699997902,0.0,0.0,0.0,0.0,0.0,0.0,0.0,0.0,0.0,0.0,0.0,0.0,0.0,0.0,0.0,0.0,0.0,0.0,0.0,0.0,0.0,0.0,0.0,0.0,0.0
1451946432479628574,330,1451946432479099468,sonar_frame,0.0689999982715,5.1360001564,0.0,3.32793807983,3.94922232628,0.0,4.47812700272,2.57800006866,0.0,5.0900387764,0.895240902901,0.0,5.0900387764,-0.895240902901,0.0,4.31791210175,-2.48550009727,0.0,1.8655962944,-2.20647120476,0.0,0.0689999982715,-2.00200009346,0.0,0.0,0.0,0.0,0.0,0.0,0.0,0.0,0.0,0.0,0.0,0.0,0.0,0.0,0.0,0.0,0.0,0.0,0.0,0.0,0.0,0.0,0.0,0.0,0.0
1451946432579588513,331,1451946432578771890,sonar_frame,0.0689999982715,5.1360001564,0.0,3.32793807983,3.94922232628,0.0,4.47812700272,2.57800006866,0.0,5.0900387764,0.895240902901,0.0,5.0900387764,-0.895240902901,0.0,4.47812700272,-2.57800006866,0.0,1.9041634798,-2.25243377686,0.0,0.0689999982715,-2.007999897,0.0,0.0,0.0,0.0,0.0,0.0,0.0,0.0,0.0,0.0,0.0,0.0,0.0,0.0,0.0,0.0,0.0,0.0,0.0,0.0,0.0,0.0,0.0,0.0,0.0
1451946432680140756,332,1451946432679039208,sonar_frame,0.0689999982715,5.1360001564,0.0,3.32793807983,3.94922232628,0.0,4.47812700272,2.57800006866,0.0,5.0900387764,0.895240902901,0.0,5.0900387764,-0.895240902901,0.0,4.47812700272,-2.57800006866,0.0,1.94594466686,-2.30222678185,0.0,0.0689999982715,-2.0150001049,0.0,0.0,0.0,0.0,0.0,0.0,0.0,0.0,0.0,0.0,0.0,0.0,0.0,0.0,0.0,0.0,0.0,0.0,0.0,0.0,0.0,0.0,0.0,0.0,0.0
1451946432779914037,333,1451946432779137545,sonar_frame,0.0689999982715,5.1360001564,0.0,3.32793807983,3.94922232628,0.0,4.47812700272,2.57800006866,0.0,5.0900387764,0.895240902901,0.0,5.0900387764,-0.895240902901,0.0,4.47812700272,-2.57800006866,0.0,1.9896543026,-2.3543176651,0.0,0.0689999982715,-2.02300000191,0.0,0.0,0.0,0.0,0.0,0.0,0.0,0.0,0.0,0.0,0.0,0.0,0.0,0.0,0.0,0.0,0.0,0.0,0.0,0.0,0.0,0.0,0.0,0.0,0.0
1451946432879734059,334,1451946432879035657,sonar_frame,0.0689999982715,5.1360001564,0.0,3.32793807983,3.94922232628,0.0,4.47812700272,2.57800006866,0.0,5.0900387764,0.895240902901,0.0,5.0900387764,-0.895240902901,0.0,4.47812700272,-2.57800006866,0.0,2.03593492508,-2.40947294235,0.0,0.0689999982715,-2.03099989891,0.0,0.0,0.0,0.0,0.0,0.0,0.0,0.0,0.0,0.0,0.0,0.0,0.0,0.0,0.0,0.0,0.0,0.0,0.0,0.0,0.0,0.0,0.0,0.0,0.0
1451946432979558150,335,1451946432978968130,sonar_frame,0.0689999982715,5.1360001564,0.0,3.32793807983,3.94922232628,0.0,4.47812700272,2.57800006866,0.0,5.0900387764,0.895240902901,0.0,5.0900387764,-0.895240902901,0.0,4.47812700272,-2.57800006866,0.0,2.08607244492,-2.46922445297,0.0,0.0689999982715,-2.04099988937,0.0,0.0,0.0,0.0,0.0,0.0,0.0,0.0,0.0,0.0,0.0,0.0,0.0,0.0,0.0,0.0,0.0,0.0,0.0,0.0,0.0,0.0,0.0,0.0,0.0
1451946433080535109,336,1451946433079588717,sonar_frame,0.0689999982715,5.1360001564,0.0,3.32793807983,3.94922232628,0.0,4.47812700272,2.57800006866,0.0,5.0900387764,0.895240902901,0.0,5.0900387764,-0.895240902901,0.0,4.47812700272,-2.57800006866,0.0,2.13813829422,-2.53127384186,0.0,0.0689999982715,-2.05100011826,0.0,0.0,0.0,0.0,0.0,0.0,0.0,0.0,0.0,0.0,0.0,0.0,0.0,0.0,0.0,0.0,0.0,0.0,0.0,0.0,0.0,0.0,0.0,0.0,0.0
1451946433181861359,337,1451946433180344021,sonar_frame,0.0689999982715,5.1360001564,0.0,3.32793807983,3.94922232628,0.0,4.47812700272,2.57800006866,0.0,5.0900387764,0.895240902901,0.0,5.0900387764,-0.895240902901,0.0,4.47812700272,-2.57800006866,0.0,2.19470357895,-2.59868597984,0.0,0.0689999982715,-2.06200003624,0.0,0.0,0.0,0.0,0.0,0.0,0.0,0.0,0.0,0.0,0.0,0.0,0.0,0.0,0.0,0.0,0.0,0.0,0.0,0.0,0.0,0.0,0.0,0.0,0.0
1451946433281393327,338,1451946433280627686,sonar_frame,0.0689999982715,5.1360001564,0.0,3.32793807983,3.94922232628,0.0,4.47812700272,2.57800006866,0.0,5.0900387764,0.895240902901,0.0,5.0900387764,-0.895240902901,0.0,4.47812700272,-2.57800006866,0.0,2.25512552261,-2.67069411278,0.0,0.0689999982715,-2.07299995422,0.0,0.0,0.0,0.0,0.0,0.0,0.0,0.0,0.0,0.0,0.0,0.0,0.0,0.0,0.0,0.0,0.0,0.0,0.0,0.0,0.0,0.0,0.0,0.0,0.0
1451946433381930215,339,1451946433381294854,sonar_frame,0.0689999982715,5.1360001564,0.0,3.32793807983,3.94922232628,0.0,4.47812700272,2.57800006866,0.0,5.0900387764,0.895240902901,0.0,5.0900387764,-0.895240902901,0.0,4.47812700272,-2.57800006866,0.0,2.32004714012,-2.74806451797,0.0,0.0689999982715,-2.08599996567,0.0,0.0,0.0,0.0,0.0,0.0,0.0,0.0,0.0,0.0,0.0,0.0,0.0,0.0,0.0,0.0,0.0,0.0,0.0,0.0,0.0,0.0,0.0,0.0,0.0
1451946433483141633,340,1451946433480725594,sonar_frame,0.0689999982715,5.1360001564,0.0,3.32793807983,3.94922232628,0.0,4.47812700272,2.57800006866,0.0,5.0900387764,0.895240902901,0.0,5.0900387764,-0.895240902901,0.0,4.47812700272,-2.57800006866,0.0,2.38882541656,-2.83003139496,0.0,0.0689999982715,-2.09899997711,0.0,0.0,0.0,0.0,0.0,0.0,0.0,0.0,0.0,0.0,0.0,0.0,0.0,0.0,0.0,0.0,0.0,0.0,0.0,0.0,0.0,0.0,0.0,0.0,0.0
1451946433581594264,341,1451946433580644929,sonar_frame,0.0689999982715,5.1360001564,0.0,3.32793807983,3.94922232628,0.0,4.47812700272,2.57800006866,0.0,5.0900387764,0.895240902901,0.0,5.0900387764,-0.895240902901,0.0,4.47812700272,-2.57800006866,0.0,2.46338868141,-2.91889238358,0.0,0.0689999982715,-2.11400008202,0.0,0.0,0.0,0.0,0.0,0.0,0.0,0.0,0.0,0.0,0.0,0.0,0.0,0.0,0.0,0.0,0.0,0.0,0.0,0.0,0.0,0.0,0.0,0.0,0.0
1451946433682072801,342,1451946433681386806,sonar_frame,0.0689999982715,5.1360001564,0.0,3.32793807983,3.94922232628,0.0,4.47812700272,2.57800006866,0.0,5.0900387764,0.895240902901,0.0,5.0900387764,-0.895240902901,0.0,4.47812700272,-2.57800006866,0.0,2.54373717308,-3.01464796066,0.0,0.0689999982715,-2.13000011444,0.0,0.0,0.0,0.0,0.0,0.0,0.0,0.0,0.0,0.0,0.0,0.0,0.0,0.0,0.0,0.0,0.0,0.0,0.0,0.0,0.0,0.0,0.0,0.0,0.0
1451946433781756801,343,1451946433780663375,sonar_frame,0.0689999982715,5.1360001564,0.0,3.32793807983,3.94922232628,0.0,4.47812700272,2.57800006866,0.0,5.0900387764,0.895240902901,0.0,5.0900387764,-0.895240902901,0.0,4.47812700272,-2.57800006866,0.0,2.63115620613,-3.11882996559,0.0,0.0689999982715,-2.14599990845,0.0,0.0,0.0,0.0,0.0,0.0,0.0,0.0,0.0,0.0,0.0,0.0,0.0,0.0,0.0,0.0,0.0,0.0,0.0,0.0,0.0,0.0,0.0,0.0,0.0
1451946433882411210,344,1451946433881012445,sonar_frame,0.0689999982715,5.1360001564,0.0,3.32793807983,3.94922232628,0.0,4.47812700272,2.57800006866,0.0,5.0900387764,0.895240902901,0.0,5.0900387764,-0.895240902901,0.0,4.47812700272,-2.57800006866,0.0,2.72500324249,-3.23067259789,0.0,0.0689999982715,-2.16300010681,0.0,0.0,0.0,0.0,0.0,0.0,0.0,0.0,0.0,0.0,0.0,0.0,0.0,0.0,0.0,0.0,0.0,0.0,0.0,0.0,0.0,0.0,0.0,0.0,0.0
1451946433981571267,345,1451946433980713177,sonar_frame,0.0689999982715,5.1360001564,0.0,3.32793807983,3.94922232628,0.0,4.47812700272,2.57800006866,0.0,5.0900387764,0.895240902901,0.0,5.0900387764,-0.895240902901,0.0,4.47812700272,-2.57800006866,0.0,2.82656359673,-3.3517074585,0.0,0.0689999982715,-2.1819999218,0.0,0.0,0.0,0.0,0.0,0.0,0.0,0.0,0.0,0.0,0.0,0.0,0.0,0.0,0.0,0.0,0.0,0.0,0.0,0.0,0.0,0.0,0.0,0.0,0.0
1451946434082755223,346,1451946434081190681,sonar_frame,0.0689999982715,5.1360001564,0.0,3.32793807983,3.94922232628,0.0,4.47812700272,2.57800006866,0.0,5.0900387764,0.895240902901,0.0,5.0900387764,-0.895240902901,0.0,4.47812700272,-2.57800006866,0.0,2.93776607513,-3.48423314095,0.0,0.0689999982715,-2.2009999752,0.0,0.0,0.0,0.0,0.0,0.0,0.0,0.0,0.0,0.0,0.0,0.0,0.0,0.0,0.0,0.0,0.0,0.0,0.0,0.0,0.0,0.0,0.0,0.0,0.0
1451946434182348188,347,1451946434180799727,sonar_frame,0.0689999982715,5.1360001564,0.0,3.32793807983,3.94922232628,0.0,4.47812700272,2.57800006866,0.0,5.0900387764,0.895240902901,0.0,5.0900387764,-0.895240902901,0.0,4.47812700272,-2.57800006866,0.0,3.05860996246,-3.62824964523,0.0,0.0689999982715,-2.22199988365,0.0,0.0,0.0,0.0,0.0,0.0,0.0,0.0,0.0,0.0,0.0,0.0,0.0,0.0,0.0,0.0,0.0,0.0,0.0,0.0,0.0,0.0,0.0,0.0,0.0
1451946434282393341,348,1451946434281457886,sonar_frame,0.0689999982715,5.1360001564,0.0,3.32793807983,3.94922232628,0.0,4.47812700272,2.57800006866,0.0,5.0900387764,0.895240902901,0.0,5.0900387764,-0.895240902901,0.0,4.47812700272,-2.57800006866,0.0,3.19166707993,-3.78682088852,0.0,0.0689999982715,-2.24399995804,0.0,0.0,0.0,0.0,0.0,0.0,0.0,0.0,0.0,0.0,0.0,0.0,0.0,0.0,0.0,0.0,0.0,0.0,0.0,0.0,0.0,0.0,0.0,0.0,0.0
1451946434381857054,349,1451946434381049737,sonar_frame,0.0689999982715,5.1360001564,0.0,3.32793807983,3.94922232628,0.0,4.47812700272,2.57800006866,0.0,5.0900387764,0.895240902901,0.0,5.0900387764,-0.895240902901,0.0,4.47812700272,-2.57800006866,0.0,3.32793807983,-3.94922232628,0.0,0.0689999982715,-2.26799988747,0.0,0.0,0.0,0.0,0.0,0.0,0.0,0.0,0.0,0.0,0.0,0.0,0.0,0.0,0.0,0.0,0.0,0.0,0.0,0.0,0.0,0.0,0.0,0.0,0.0
1451946434482305609,350,1451946434481520517,sonar_frame,0.0689999982715,5.1360001564,0.0,3.32793807983,3.94922232628,0.0,4.47812700272,2.57800006866,0.0,5.0900387764,0.895240902901,0.0,5.0900387764,-0.895240902901,0.0,4.47812700272,-2.57800006866,0.0,3.32793807983,-3.94922232628,0.0,0.0689999982715,-2.29200005531,0.0,0.0,0.0,0.0,0.0,0.0,0.0,0.0,0.0,0.0,0.0,0.0,0.0,0.0,0.0,0.0,0.0,0.0,0.0,0.0,0.0,0.0,0.0,0.0,0.0
1451946434583725894,351,1451946434582227118,sonar_frame,0.0689999982715,5.06300020218,0.0,3.32793807983,3.94922232628,0.0,4.47812700272,2.57800006866,0.0,5.0900387764,0.895240902901,0.0,5.0900387764,-0.895240902901,0.0,4.47812700272,-2.57800006866,0.0,3.32793807983,-3.94922232628,0.0,0.0689999982715,-2.3180000782,0.0,0.0,0.0,0.0,0.0,0.0,0.0,0.0,0.0,0.0,0.0,0.0,0.0,0.0,0.0,0.0,0.0,0.0,0.0,0.0,0.0,0.0,0.0,0.0,0.0
1451946434683116062,352,1451946434682431263,sonar_frame,0.0689999982715,4.89699983597,0.0,3.32793807983,3.94922232628,0.0,4.47812700272,2.57800006866,0.0,5.0900387764,0.895240902901,0.0,5.0900387764,-0.895240902901,0.0,4.47812700272,-2.57800006866,0.0,3.32793807983,-3.94922232628,0.0,0.0689999982715,-2.34599995613,0.0,0.0,0.0,0.0,0.0,0.0,0.0,0.0,0.0,0.0,0.0,0.0,0.0,0.0,0.0,0.0,0.0,0.0,0.0,0.0,0.0,0.0,0.0,0.0,0.0
1451946434783219822,353,1451946434782368190,sonar_frame,0.0689999982715,4.74300003052,0.0,3.32793807983,3.94922232628,0.0,4.47812700272,2.57800006866,0.0,5.0900387764,0.895240902901,0.0,5.0900387764,-0.895240902901,0.0,4.47812700272,-2.57800006866,0.0,3.32793807983,-3.94922232628,0.0,0.0689999982715,-2.37400007248,0.0,0.0,0.0,0.0,0.0,0.0,0.0,0.0,0.0,0.0,0.0,0.0,0.0,0.0,0.0,0.0,0.0,0.0,0.0,0.0,0.0,0.0,0.0,0.0,0.0
1451946434883046404,354,1451946434882338562,sonar_frame,0.0689999982715,4.59999990463,0.0,3.32793807983,3.94922232628,0.0,4.47812700272,2.57800006866,0.0,5.0900387764,0.895240902901,0.0,5.0900387764,-0.895240902901,0.0,4.47812700272,-2.57800006866,0.0,3.32793807983,-3.94922232628,0.0,0.0689999982715,-2.40499997139,0.0,0.0,0.0,0.0,0.0,0.0,0.0,0.0,0.0,0.0,0.0,0.0,0.0,0.0,0.0,0.0,0.0,0.0,0.0,0.0,0.0,0.0,0.0,0.0,0.0
1451946434983078706,355,1451946434981850710,sonar_frame,0.0689999982715,4.46700000763,0.0,3.32793807983,3.94922232628,0.0,4.47812700272,2.57800006866,0.0,5.0900387764,0.895240902901,0.0,5.0900387764,-0.895240902901,0.0,4.47812700272,-2.57800006866,0.0,3.32793807983,-3.94922232628,0.0,0.0689999982715,-2.43600010872,0.0,0.0,0.0,0.0,0.0,0.0,0.0,0.0,0.0,0.0,0.0,0.0,0.0,0.0,0.0,0.0,0.0,0.0,0.0,0.0,0.0,0.0,0.0,0.0,0.0
1451946435083207403,356,1451946435082249487,sonar_frame,0.0689999982715,4.34299993515,0.0,3.32793807983,3.94922232628,0.0,4.47812700272,2.57800006866,0.0,5.0900387764,0.895240902901,0.0,5.0900387764,-0.895240902901,0.0,4.47812700272,-2.57800006866,0.0,3.32793807983,-3.94922232628,0.0,0.0689999982715,-2.47000002861,0.0,0.0,0.0,0.0,0.0,0.0,0.0,0.0,0.0,0.0,0.0,0.0,0.0,0.0,0.0,0.0,0.0,0.0,0.0,0.0,0.0,0.0,0.0,0.0,0.0
1451946435182898922,357,1451946435181654940,sonar_frame,0.0689999982715,4.22700023651,0.0,3.32793807983,3.94922232628,0.0,4.47812700272,2.57800006866,0.0,5.0900387764,0.895240902901,0.0,5.0900387764,-0.895240902901,0.0,4.47812700272,-2.57800006866,0.0,3.32793807983,-3.94922232628,0.0,0.0689999982715,-2.50600004196,0.0,0.0,0.0,0.0,0.0,0.0,0.0,0.0,0.0,0.0,0.0,0.0,0.0,0.0,0.0,0.0,0.0,0.0,0.0,0.0,0.0,0.0,0.0,0.0,0.0
1451946435282790024,358,1451946435281741520,sonar_frame,0.0689999982715,4.11800003052,0.0,3.32793807983,3.94922232628,0.0,4.47812700272,2.57800006866,0.0,5.0900387764,0.895240902901,0.0,5.0900387764,-0.895240902901,0.0,4.47812700272,-2.57800006866,0.0,3.32793807983,-3.94922232628,0.0,0.0689999982715,-2.54299998283,0.0,0.0,0.0,0.0,0.0,0.0,0.0,0.0,0.0,0.0,0.0,0.0,0.0,0.0,0.0,0.0,0.0,0.0,0.0,0.0,0.0,0.0,0.0,0.0,0.0
1451946435382903049,359,1451946435381637762,sonar_frame,0.0689999982715,4.01700019836,0.0,3.32793807983,3.94922232628,0.0,4.47812700272,2.57800006866,0.0,5.0900387764,0.895240902901,0.0,5.0900387764,-0.895240902901,0.0,4.47812700272,-2.57800006866,0.0,3.32793807983,-3.94922232628,0.0,0.0689999982715,-2.58299994469,0.0,0.0,0.0,0.0,0.0,0.0,0.0,0.0,0.0,0.0,0.0,0.0,0.0,0.0,0.0,0.0,0.0,0.0,0.0,0.0,0.0,0.0,0.0,0.0,0.0
1451946435482776003,360,1451946435481887055,sonar_frame,0.0689999982715,3.92100000381,0.0,3.32793807983,3.94922232628,0.0,4.47812700272,2.57800006866,0.0,5.0900387764,0.895240902901,0.0,5.0900387764,-0.895240902901,0.0,4.47812700272,-2.57800006866,0.0,3.32793807983,-3.94922232628,0.0,0.0689999982715,-2.625,0.0,0.0,0.0,0.0,0.0,0.0,0.0,0.0,0.0,0.0,0.0,0.0,0.0,0.0,0.0,0.0,0.0,0.0,0.0,0.0,0.0,0.0,0.0,0.0,0.0
1451946435583203219,361,1451946435582444108,sonar_frame,0.0689999982715,3.83100008965,0.0,3.32793807983,3.94922232628,0.0,4.47812700272,2.57800006866,0.0,5.0900387764,0.895240902901,0.0,5.0900387764,-0.895240902901,0.0,4.47812700272,-2.57800006866,0.0,3.32793807983,-3.94922232628,0.0,0.0689999982715,-2.66899991035,0.0,0.0,0.0,0.0,0.0,0.0,0.0,0.0,0.0,0.0,0.0,0.0,0.0,0.0,0.0,0.0,0.0,0.0,0.0,0.0,0.0,0.0,0.0,0.0,0.0
1451946435682723596,362,1451946435682248996,sonar_frame,0.0689999982715,3.7460000515,0.0,3.32793807983,3.94922232628,0.0,4.47812700272,2.57800006866,0.0,5.0900387764,0.895240902901,0.0,5.0900387764,-0.895240902901,0.0,4.47812700272,-2.57800006866,0.0,3.32793807983,-3.94922232628,0.0,0.0689999982715,-2.71499991417,0.0,0.0,0.0,0.0,0.0,0.0,0.0,0.0,0.0,0.0,0.0,0.0,0.0,0.0,0.0,0.0,0.0,0.0,0.0,0.0,0.0,0.0,0.0,0.0,0.0
1451946435782796806,363,1451946435782252879,sonar_frame,0.0689999982715,3.66599988937,0.0,3.32793807983,3.94922232628,0.0,4.47812700272,2.57800006866,0.0,5.0900387764,0.895240902901,0.0,5.0900387764,-0.895240902901,0.0,4.47812700272,-2.57800006866,0.0,3.32793807983,-3.94922232628,0.0,0.0689999982715,-2.76399993896,0.0,0.0,0.0,0.0,0.0,0.0,0.0,0.0,0.0,0.0,0.0,0.0,0.0,0.0,0.0,0.0,0.0,0.0,0.0,0.0,0.0,0.0,0.0,0.0,0.0
1451946435883917988,364,1451946435882449050,sonar_frame,0.0689999982715,3.59200000763,0.0,3.32793807983,3.94922232628,0.0,4.47812700272,2.57800006866,0.0,5.0900387764,0.895240902901,0.0,5.0900387764,-0.895240902901,0.0,4.47812700272,-2.57800006866,0.0,3.32793807983,-3.94922232628,0.0,0.0689999982715,-2.81599998474,0.0,0.0,0.0,0.0,0.0,0.0,0.0,0.0,0.0,0.0,0.0,0.0,0.0,0.0,0.0,0.0,0.0,0.0,0.0,0.0,0.0,0.0,0.0,0.0,0.0
1451946435983023343,365,1451946435981854126,sonar_frame,0.0689999982715,3.52099990845,0.0,3.32793807983,3.94922232628,0.0,4.47812700272,2.57800006866,0.0,5.0900387764,0.895240902901,0.0,5.0900387764,-0.895240902901,0.0,4.47812700272,-2.57800006866,0.0,3.32793807983,-3.94922232628,0.0,0.0689999982715,-2.8710000515,0.0,0.0,0.0,0.0,0.0,0.0,0.0,0.0,0.0,0.0,0.0,0.0,0.0,0.0,0.0,0.0,0.0,0.0,0.0,0.0,0.0,0.0,0.0,0.0,0.0
1451946436082276394,366,1451946436081563358,sonar_frame,0.0689999982715,3.45300006866,0.0,3.32793807983,3.94922232628,0.0,4.47812700272,2.57800006866,0.0,5.0900387764,0.895240902901,0.0,5.0900387764,-0.895240902901,0.0,4.47812700272,-2.57800006866,0.0,3.32793807983,-3.94922232628,0.0,0.0689999982715,-2.92899990082,0.0,0.0,0.0,0.0,0.0,0.0,0.0,0.0,0.0,0.0,0.0,0.0,0.0,0.0,0.0,0.0,0.0,0.0,0.0,0.0,0.0,0.0,0.0,0.0,0.0
1451946436182433309,367,1451946436181759747,sonar_frame,0.0689999982715,3.3900001049,0.0,3.32793807983,3.94922232628,0.0,4.47812700272,2.57800006866,0.0,5.0900387764,0.895240902901,0.0,5.0900387764,-0.895240902901,0.0,4.47812700272,-2.57800006866,0.0,3.32793807983,-3.94922232628,0.0,0.0689999982715,-2.99099993706,0.0,0.0,0.0,0.0,0.0,0.0,0.0,0.0,0.0,0.0,0.0,0.0,0.0,0.0,0.0,0.0,0.0,0.0,0.0,0.0,0.0,0.0,0.0,0.0,0.0
1451946436283376608,368,1451946436282230251,sonar_frame,0.0689999982715,3.32999992371,0.0,3.32793807983,3.94922232628,0.0,4.47812700272,2.57800006866,0.0,5.0900387764,0.895240902901,0.0,5.0900387764,-0.895240902901,0.0,4.47812700272,-2.57800006866,0.0,3.32793807983,-3.94922232628,0.0,0.0689999982715,-3.05500006676,0.0,0.0,0.0,0.0,0.0,0.0,0.0,0.0,0.0,0.0,0.0,0.0,0.0,0.0,0.0,0.0,0.0,0.0,0.0,0.0,0.0,0.0,0.0,0.0,0.0
1451946436382817850,369,1451946436382322350,sonar_frame,0.0689999982715,3.27300000191,0.0,3.32793807983,3.94922232628,0.0,4.47812700272,2.57800006866,0.0,5.0900387764,0.895240902901,0.0,5.0900387764,-0.895240902901,0.0,4.47812700272,-2.57800006866,0.0,3.32793807983,-3.94922232628,0.0,0.0689999982715,-3.125,0.0,0.0,0.0,0.0,0.0,0.0,0.0,0.0,0.0,0.0,0.0,0.0,0.0,0.0,0.0,0.0,0.0,0.0,0.0,0.0,0.0,0.0,0.0,0.0,0.0
1451946436483299674,370,1451946436482338917,sonar_frame,0.0689999982715,3.22000002861,0.0,3.32793807983,3.94922232628,0.0,4.47812700272,2.57800006866,0.0,5.0900387764,0.895240902901,0.0,5.0900387764,-0.895240902901,0.0,4.47812700272,-2.57800006866,0.0,3.32793807983,-3.94922232628,0.0,0.0689999982715,-3.19799995422,0.0,0.0,0.0,0.0,0.0,0.0,0.0,0.0,0.0,0.0,0.0,0.0,0.0,0.0,0.0,0.0,0.0,0.0,0.0,0.0,0.0,0.0,0.0,0.0,0.0
1451946436582919493,371,1451946436581652518,sonar_frame,0.0689999982715,3.16899991035,0.0,3.32793807983,3.94922232628,0.0,4.47812700272,2.57800006866,0.0,5.0900387764,0.895240902901,0.0,5.0900387764,-0.895240902901,0.0,4.47812700272,-2.57800006866,0.0,3.32793807983,-3.94922232628,0.0,0.0689999982715,-3.27699995041,0.0,0.0,0.0,0.0,0.0,0.0,0.0,0.0,0.0,0.0,0.0,0.0,0.0,0.0,0.0,0.0,0.0,0.0,0.0,0.0,0.0,0.0,0.0,0.0,0.0
1451946436682792641,372,1451946436682194716,sonar_frame,0.0689999982715,3.1210000515,0.0,3.32793807983,3.94922232628,0.0,4.47812700272,2.57800006866,0.0,5.0900387764,0.895240902901,0.0,5.0900387764,-0.895240902901,0.0,4.47812700272,-2.57800006866,0.0,3.32793807983,-3.94922232628,0.0,0.0689999982715,-3.3599998951,0.0,0.0,0.0,0.0,0.0,0.0,0.0,0.0,0.0,0.0,0.0,0.0,0.0,0.0,0.0,0.0,0.0,0.0,0.0,0.0,0.0,0.0,0.0,0.0,0.0
1451946436783549681,373,1451946436782611180,sonar_frame,0.0689999982715,3.07500004768,0.0,3.32793807983,3.94922232628,0.0,4.47812700272,2.57800006866,0.0,5.0900387764,0.895240902901,0.0,5.0900387764,-0.895240902901,0.0,4.47812700272,-2.57800006866,0.0,3.32793807983,-3.94922232628,0.0,0.0689999982715,-3.44899988174,0.0,0.0,0.0,0.0,0.0,0.0,0.0,0.0,0.0,0.0,0.0,0.0,0.0,0.0,0.0,0.0,0.0,0.0,0.0,0.0,0.0,0.0,0.0,0.0,0.0
1451946436884114453,374,1451946436883254072,sonar_frame,0.0689999982715,3.03099989891,0.0,3.32793807983,3.94922232628,0.0,4.47812700272,2.57800006866,0.0,5.0900387764,0.895240902901,0.0,5.0900387764,-0.895240902901,0.0,4.47812700272,-2.57800006866,0.0,3.32793807983,-3.94922232628,0.0,0.0689999982715,-3.54399991035,0.0,0.0,0.0,0.0,0.0,0.0,0.0,0.0,0.0,0.0,0.0,0.0,0.0,0.0,0.0,0.0,0.0,0.0,0.0,0.0,0.0,0.0,0.0,0.0,0.0
1451946436983833901,375,1451946436982977442,sonar_frame,0.0689999982715,2.99000000954,0.0,3.32793807983,3.94922232628,0.0,4.47812700272,2.57800006866,0.0,5.0900387764,0.895240902901,0.0,5.0900387764,-0.895240902901,0.0,4.47812700272,-2.57800006866,0.0,3.32793807983,-3.94922232628,0.0,0.0689999982715,-3.64499998093,0.0,0.0,0.0,0.0,0.0,0.0,0.0,0.0,0.0,0.0,0.0,0.0,0.0,0.0,0.0,0.0,0.0,0.0,0.0,0.0,0.0,0.0,0.0,0.0,0.0
1451946437083543887,376,1451946437082724795,sonar_frame,0.0689999982715,2.9509999752,0.0,3.32793807983,3.94922232628,0.0,4.47812700272,2.57800006866,0.0,5.0900387764,0.895240902901,0.0,5.0900387764,-0.895240902901,0.0,4.47812700272,-2.57800006866,0.0,3.32793807983,-3.94922232628,0.0,0.0689999982715,-3.7539999485,0.0,0.0,0.0,0.0,0.0,0.0,0.0,0.0,0.0,0.0,0.0,0.0,0.0,0.0,0.0,0.0,0.0,0.0,0.0,0.0,0.0,0.0,0.0,0.0,0.0
1451946437183984879,377,1451946437182847669,sonar_frame,0.0689999982715,2.91400003433,0.0,3.32793807983,3.94922232628,0.0,4.47812700272,2.57800006866,0.0,5.0900387764,0.895240902901,0.0,5.0900387764,-0.895240902901,0.0,4.47812700272,-2.57800006866,0.0,3.32793807983,-3.94922232628,0.0,0.0689999982715,-3.8710000515,0.0,0.0,0.0,0.0,0.0,0.0,0.0,0.0,0.0,0.0,0.0,0.0,0.0,0.0,0.0,0.0,0.0,0.0,0.0,0.0,0.0,0.0,0.0,0.0,0.0
1451946437284433448,378,1451946437283461352,sonar_frame,0.0689999982715,2.8789999485,0.0,3.32793807983,3.94922232628,0.0,4.47812700272,2.57800006866,0.0,5.0900387764,0.895240902901,0.0,5.0900387764,-0.895240902901,0.0,4.47812700272,-2.57800006866,0.0,3.32793807983,-3.94922232628,0.0,0.0689999982715,-3.9960000515,0.0,0.0,0.0,0.0,0.0,0.0,0.0,0.0,0.0,0.0,0.0,0.0,0.0,0.0,0.0,0.0,0.0,0.0,0.0,0.0,0.0,0.0,0.0,0.0,0.0
1451946437384607682,379,1451946437383521957,sonar_frame,0.0689999982715,2.84599995613,0.0,3.32793807983,3.94922232628,0.0,4.47812700272,2.57800006866,0.0,5.0900387764,0.895240902901,0.0,5.0900387764,-0.895240902901,0.0,4.47812700272,-2.57800006866,0.0,3.32793807983,-3.94922232628,0.0,0.0689999982715,-4.13199996948,0.0,0.0,0.0,0.0,0.0,0.0,0.0,0.0,0.0,0.0,0.0,0.0,0.0,0.0,0.0,0.0,0.0,0.0,0.0,0.0,0.0,0.0,0.0,0.0,0.0
1451946437484067893,380,1451946437483286505,sonar_frame,0.0689999982715,2.81399989128,0.0,3.32793807983,3.94922232628,0.0,4.47812700272,2.57800006866,0.0,5.0900387764,0.895240902901,0.0,5.0900387764,-0.895240902901,0.0,4.47812700272,-2.57800006866,0.0,3.32793807983,-3.94922232628,0.0,0.0689999982715,-4.27899980545,0.0,0.0,0.0,0.0,0.0,0.0,0.0,0.0,0.0,0.0,0.0,0.0,0.0,0.0,0.0,0.0,0.0,0.0,0.0,0.0,0.0,0.0,0.0,0.0,0.0
1451946437584874457,381,1451946437583560479,sonar_frame,0.0689999982715,2.78399991989,0.0,3.32793807983,3.94922232628,0.0,4.47812700272,2.57800006866,0.0,5.0900387764,0.895240902901,0.0,5.0900387764,-0.895240902901,0.0,4.47812700272,-2.57800006866,0.0,3.32793807983,-3.94922232628,0.0,0.0689999982715,-4.43800020218,0.0,0.0,0.0,0.0,0.0,0.0,0.0,0.0,0.0,0.0,0.0,0.0,0.0,0.0,0.0,0.0,0.0,0.0,0.0,0.0,0.0,0.0,0.0,0.0,0.0
1451946437684368129,382,1451946437683679670,sonar_frame,0.0689999982715,2.75600004196,0.0,3.32793807983,3.94922232628,0.0,4.47812700272,2.57800006866,0.0,5.0900387764,0.895240902901,0.0,5.0900387764,-0.895240902901,0.0,4.47812700272,-2.57800006866,0.0,3.32793807983,-3.94922232628,0.0,0.0689999982715,-4.61000013351,0.0,0.0,0.0,0.0,0.0,0.0,0.0,0.0,0.0,0.0,0.0,0.0,0.0,0.0,0.0,0.0,0.0,0.0,0.0,0.0,0.0,0.0,0.0,0.0,0.0
1451946437784883626,383,1451946437783684200,sonar_frame,0.0689999982715,2.72900009155,0.0,3.32793807983,3.94922232628,0.0,4.47812700272,2.57800006866,0.0,5.0900387764,0.895240902901,0.0,5.0900387764,-0.895240902901,0.0,4.47812700272,-2.57800006866,0.0,3.32793807983,-3.94922232628,0.0,0.0689999982715,-4.79899978638,0.0,0.0,0.0,0.0,0.0,0.0,0.0,0.0,0.0,0.0,0.0,0.0,0.0,0.0,0.0,0.0,0.0,0.0,0.0,0.0,0.0,0.0,0.0,0.0,0.0
1451946437884251570,384,1451946437883593347,sonar_frame,0.0689999982715,2.70399999619,0.0,3.32793807983,3.94922232628,0.0,4.47812700272,2.57800006866,0.0,5.0900387764,0.895240902901,0.0,5.0900387764,-0.895240902901,0.0,4.47812700272,-2.57800006866,0.0,3.32793807983,-3.94922232628,0.0,0.0689999982715,-5.00500011444,0.0,0.0,0.0,0.0,0.0,0.0,0.0,0.0,0.0,0.0,0.0,0.0,0.0,0.0,0.0,0.0,0.0,0.0,0.0,0.0,0.0,0.0,0.0,0.0,0.0
1451946437984469261,385,1451946437983745790,sonar_frame,0.0689999982715,2.68099999428,0.0,3.32793807983,3.94922232628,0.0,4.47812700272,2.57800006866,0.0,5.0900387764,0.895240902901,0.0,5.0900387764,-0.895240902901,0.0,4.47812700272,-2.57800006866,0.0,3.32793807983,-3.94922232628,0.0,0.0689999982715,-5.1360001564,0.0,0.0,0.0,0.0,0.0,0.0,0.0,0.0,0.0,0.0,0.0,0.0,0.0,0.0,0.0,0.0,0.0,0.0,0.0,0.0,0.0,0.0,0.0,0.0,0.0
1451946438085098982,386,1451946438084106750,sonar_frame,0.0689999982715,2.65799999237,0.0,3.32793807983,3.94922232628,0.0,4.47812700272,2.57800006866,0.0,5.0900387764,0.895240902901,0.0,5.0900387764,-0.895240902901,0.0,4.47812700272,-2.57800006866,0.0,3.32793807983,-3.94922232628,0.0,0.0689999982715,-5.1360001564,0.0,0.0,0.0,0.0,0.0,0.0,0.0,0.0,0.0,0.0,0.0,0.0,0.0,0.0,0.0,0.0,0.0,0.0,0.0,0.0,0.0,0.0,0.0,0.0,0.0
1451946438184512815,387,1451946438183601606,sonar_frame,0.0689999982715,2.63700008392,0.0,3.23666214943,3.84044384956,0.0,4.47812700272,2.57800006866,0.0,5.0900387764,0.895240902901,0.0,5.0900387764,-0.895240902901,0.0,4.47812700272,-2.57800006866,0.0,3.32793807983,-3.94922232628,0.0,0.0689999982715,-5.1360001564,0.0,0.0,0.0,0.0,0.0,0.0,0.0,0.0,0.0,0.0,0.0,0.0,0.0,0.0,0.0,0.0,0.0,0.0,0.0,0.0,0.0,0.0,0.0,0.0,0.0
1451946438284952333,388,1451946438283860408,sonar_frame,0.0689999982715,2.617000103,0.0,3.12995958328,3.71328043938,0.0,4.47812700272,2.57800006866,0.0,5.0900387764,0.895240902901,0.0,5.0900387764,-0.895240902901,0.0,4.47812700272,-2.57800006866,0.0,3.32793807983,-3.94922232628,0.0,0.0689999982715,-5.1360001564,0.0,0.0,0.0,0.0,0.0,0.0,0.0,0.0,0.0,0.0,0.0,0.0,0.0,0.0,0.0,0.0,0.0,0.0,0.0,0.0,0.0,0.0,0.0,0.0,0.0
1451946438385411381,389,1451946438384491371,sonar_frame,0.0689999982715,2.59800004959,0.0,3.03097009659,3.59530973434,0.0,4.47812700272,2.57800006866,0.0,5.0900387764,0.895240902901,0.0,5.0900387764,-0.895240902901,0.0,4.47812700272,-2.57800006866,0.0,3.32793807983,-3.94922232628,0.0,0.0689999982715,-5.1360001564,0.0,0.0,0.0,0.0,0.0,0.0,0.0,0.0,0.0,0.0,0.0,0.0,0.0,0.0,0.0,0.0,0.0,0.0,0.0,0.0,0.0,0.0,0.0,0.0,0.0
1451946438485314299,390,1451946438483941153,sonar_frame,0.0689999982715,2.57999992371,0.0,2.93905162811,3.48576521873,0.0,4.47812700272,2.57800006866,0.0,5.0900387764,0.895240902901,0.0,5.0900387764,-0.895240902901,0.0,4.47812700272,-2.57800006866,0.0,3.32793807983,-3.94922232628,0.0,0.0689999982715,-5.1360001564,0.0,0.0,0.0,0.0,0.0,0.0,0.0,0.0,0.0,0.0,0.0,0.0,0.0,0.0,0.0,0.0,0.0,0.0,0.0,0.0,0.0,0.0,0.0,0.0,0.0
1451946438585370543,391,1451946438584002120,sonar_frame,0.0689999982715,2.56399989128,0.0,2.85356068611,3.38388133049,0.0,4.47812700272,2.57800006866,0.0,5.0900387764,0.895240902901,0.0,5.0900387764,-0.895240902901,0.0,4.47812700272,-2.57800006866,0.0,3.32793807983,-3.94922232628,0.0,0.0689999982715,-5.1360001564,0.0,0.0,0.0,0.0,0.0,0.0,0.0,0.0,0.0,0.0,0.0,0.0,0.0,0.0,0.0,0.0,0.0,0.0,0.0,0.0,0.0,0.0,0.0,0.0,0.0
1451946438685146631,392,1451946438684198307,sonar_frame,0.0689999982715,2.5490000248,0.0,2.77449798584,3.28965783119,0.0,4.47812700272,2.57800006866,0.0,5.0900387764,0.895240902901,0.0,5.0900387764,-0.895240902901,0.0,4.47812700272,-2.57800006866,0.0,3.32793807983,-3.94922232628,0.0,0.0689999982715,-5.1360001564,0.0,0.0,0.0,0.0,0.0,0.0,0.0,0.0,0.0,0.0,0.0,0.0,0.0,0.0,0.0,0.0,0.0,0.0,0.0,0.0,0.0,0.0,0.0,0.0,0.0
1451946438785182795,393,1451946438784235845,sonar_frame,0.0689999982715,2.53500008583,0.0,2.69993448257,3.20079684258,0.0,4.47812700272,2.57800006866,0.0,5.0900387764,0.895240902901,0.0,5.0900387764,-0.895240902901,0.0,4.47812700272,-2.57800006866,0.0,3.32793807983,-3.94922232628,0.0,0.0689999982715,-5.1360001564,0.0,0.0,0.0,0.0,0.0,0.0,0.0,0.0,0.0,0.0,0.0,0.0,0.0,0.0,0.0,0.0,0.0,0.0,0.0,0.0,0.0,0.0,0.0,0.0,0.0
1451946438885411380,394,1451946438884358776,sonar_frame,0.0689999982715,2.53399991989,0.0,2.69414949417,3.19390249252,0.0,4.47812700272,2.57800006866,0.0,5.0900387764,0.895240902901,0.0,5.0900387764,-0.895240902901,0.0,4.47812700272,-2.57800006866,0.0,3.32793807983,-3.94922232628,0.0,0.0689999982715,-5.1360001564,0.0,0.0,0.0,0.0,0.0,0.0,0.0,0.0,0.0,0.0,0.0,0.0,0.0,0.0,0.0,0.0,0.0,0.0,0.0,0.0,0.0,0.0,0.0,0.0,0.0
1451946438985173293,395,1451946438984211401,sonar_frame,0.0689999982715,2.53600001335,0.0,2.69607782364,3.19620060921,0.0,4.47812700272,2.57800006866,0.0,5.0900387764,0.895240902901,0.0,5.0900387764,-0.895240902901,0.0,4.47812700272,-2.57800006866,0.0,3.32793807983,-3.94922232628,0.0,0.0689999982715,-5.1360001564,0.0,0.0,0.0,0.0,0.0,0.0,0.0,0.0,0.0,0.0,0.0,0.0,0.0,0.0,0.0,0.0,0.0,0.0,0.0,0.0,0.0,0.0,0.0,0.0,0.0
1451946439085222189,396,1451946439084256357,sonar_frame,0.0689999982715,2.53800010681,0.0,2.69800615311,3.19849872589,0.0,4.47812700272,2.57800006866,0.0,5.0900387764,0.895240902901,0.0,5.0900387764,-0.895240902901,0.0,4.47812700272,-2.57800006866,0.0,3.32793807983,-3.94922232628,0.0,0.0689999982715,-5.1360001564,0.0,0.0,0.0,0.0,0.0,0.0,0.0,0.0,0.0,0.0,0.0,0.0,0.0,0.0,0.0,0.0,0.0,0.0,0.0,0.0,0.0,0.0,0.0,0.0,0.0
1451946439185063022,397,1451946439184417096,sonar_frame,0.0689999982715,2.54099988937,0.0,2.70122003555,3.20232892036,0.0,4.47812700272,2.57800006866,0.0,5.0900387764,0.895240902901,0.0,5.0900387764,-0.895240902901,0.0,4.47812700272,-2.57800006866,0.0,3.32793807983,-3.94922232628,0.0,0.0689999982715,-5.1360001564,0.0,0.0,0.0,0.0,0.0,0.0,0.0,0.0,0.0,0.0,0.0,0.0,0.0,0.0,0.0,0.0,0.0,0.0,0.0,0.0,0.0,0.0,0.0,0.0,0.0
1451946439285247143,398,1451946439284504552,sonar_frame,0.0689999982715,2.54500007629,0.0,2.7057197094,3.20769119263,0.0,4.47812700272,2.57800006866,0.0,5.0900387764,0.895240902901,0.0,5.0900387764,-0.895240902901,0.0,4.47812700272,-2.57800006866,0.0,3.32793807983,-3.94922232628,0.0,0.0689999982715,-5.1360001564,0.0,0.0,0.0,0.0,0.0,0.0,0.0,0.0,0.0,0.0,0.0,0.0,0.0,0.0,0.0,0.0,0.0,0.0,0.0,0.0,0.0,0.0,0.0,0.0,0.0
1451946439385617999,399,1451946439385069176,sonar_frame,0.0689999982715,2.5490000248,0.0,2.71021914482,3.21305346489,0.0,4.47812700272,2.57800006866,0.0,5.0900387764,0.895240902901,0.0,5.0900387764,-0.895240902901,0.0,4.47812700272,-2.57800006866,0.0,3.32793807983,-3.94922232628,0.0,0.0689999982715,-5.1360001564,0.0,0.0,0.0,0.0,0.0,0.0,0.0,0.0,0.0,0.0,0.0,0.0,0.0,0.0,0.0,0.0,0.0,0.0,0.0,0.0,0.0,0.0,0.0,0.0,0.0
1451946439486688804,400,1451946439485444775,sonar_frame,0.0689999982715,2.55399990082,0.0,2.71600413322,3.21994781494,0.0,4.47812700272,2.57800006866,0.0,5.0900387764,0.895240902901,0.0,5.0900387764,-0.895240902901,0.0,4.47812700272,-2.57800006866,0.0,3.32793807983,-3.94922232628,0.0,0.0689999982715,-5.1360001564,0.0,0.0,0.0,0.0,0.0,0.0,0.0,0.0,0.0,0.0,0.0,0.0,0.0,0.0,0.0,0.0,0.0,0.0,0.0,0.0,0.0,0.0,0.0,0.0,0.0
1451946439585508085,401,1451946439584695378,sonar_frame,0.0689999982715,2.55900001526,0.0,2.72114658356,3.22607636452,0.0,4.47812700272,2.57800006866,0.0,5.0900387764,0.895240902901,0.0,5.0900387764,-0.895240902901,0.0,4.47812700272,-2.57800006866,0.0,3.32793807983,-3.94922232628,0.0,0.0689999982715,-5.1360001564,0.0,0.0,0.0,0.0,0.0,0.0,0.0,0.0,0.0,0.0,0.0,0.0,0.0,0.0,0.0,0.0,0.0,0.0,0.0,0.0,0.0,0.0,0.0,0.0,0.0
1451946439686210435,402,1451946439685040399,sonar_frame,0.0689999982715,2.56500005722,0.0,2.72628879547,3.23220467567,0.0,4.47812700272,2.57800006866,0.0,5.0900387764,0.895240902901,0.0,5.0900387764,-0.895240902901,0.0,4.47812700272,-2.57800006866,0.0,3.32793807983,-3.94922232628,0.0,0.0689999982715,-5.1360001564,0.0,0.0,0.0,0.0,0.0,0.0,0.0,0.0,0.0,0.0,0.0,0.0,0.0,0.0,0.0,0.0,0.0,0.0,0.0,0.0,0.0,0.0,0.0,0.0,0.0
1451946439785743366,403,1451946439785050669,sonar_frame,0.0689999982715,2.56900000572,0.0,2.7314312458,3.23833298683,0.0,4.47812700272,2.57800006866,0.0,5.0900387764,0.895240902901,0.0,5.0900387764,-0.895240902901,0.0,4.47812700272,-2.57800006866,0.0,3.32793807983,-3.94922232628,0.0,0.0689999982715,-5.1360001564,0.0,0.0,0.0,0.0,0.0,0.0,0.0,0.0,0.0,0.0,0.0,0.0,0.0,0.0,0.0,0.0,0.0,0.0,0.0,0.0,0.0,0.0,0.0,0.0,0.0
1451946439885913149,404,1451946439884710865,sonar_frame,0.0689999982715,2.57399988174,0.0,2.73721623421,3.24522733688,0.0,4.47812700272,2.57800006866,0.0,5.0900387764,0.895240902901,0.0,5.0900387764,-0.895240902901,0.0,4.47812700272,-2.57800006866,0.0,3.32793807983,-3.94922232628,0.0,0.0689999982715,-5.1360001564,0.0,0.0,0.0,0.0,0.0,0.0,0.0,0.0,0.0,0.0,0.0,0.0,0.0,0.0,0.0,0.0,0.0,0.0,0.0,0.0,0.0,0.0,0.0,0.0,0.0
1451946439986374494,405,1451946439985166306,sonar_frame,0.0689999982715,2.57899999619,0.0,2.74235844612,3.25135564804,0.0,4.47812700272,2.57800006866,0.0,5.0900387764,0.895240902901,0.0,5.0900387764,-0.895240902901,0.0,4.47812700272,-2.57800006866,0.0,3.32793807983,-3.94922232628,0.0,0.0689999982715,-5.1360001564,0.0,0.0,0.0,0.0,0.0,0.0,0.0,0.0,0.0,0.0,0.0,0.0,0.0,0.0,0.0,0.0,0.0,0.0,0.0,0.0,0.0,0.0,0.0,0.0,0.0
