%time,field.header.seq,field.header.stamp,field.header.frame_id,field.points0.x,field.points0.y,field.points0.z,field.points1.x,field.points1.y,field.points1.z,field.points2.x,field.points2.y,field.points2.z,field.points3.x,field.points3.y,field.points3.z,field.points4.x,field.points4.y,field.points4.z,field.points5.x,field.points5.y,field.points5.z,field.points6.x,field.points6.y,field.points6.z,field.points7.x,field.points7.y,field.points7.z,field.points8.x,field.points8.y,field.points8.z,field.points9.x,field.points9.y,field.points9.z,field.points10.x,field.points10.y,field.points10.z,field.points11.x,field.points11.y,field.points11.z,field.points12.x,field.points12.y,field.points12.z,field.points13.x,field.points13.y,field.points13.z,field.points14.x,field.points14.y,field.points14.z,field.points15.x,field.points15.y,field.points15.z
1452406629900469588,2443,1452406629898822770,sonar_frame,0.0689999982715,1.59800004959,0.0,1.41693043709,1.67177212238,0.0,3.92127275467,2.25650000572,0.0,4.18204593658,0.735137283802,0.0,4.1544713974,-0.730275094509,0.0,4.42529964447,-2.5474998951,0.0,3.32793807983,-3.94922232628,0.0,0.0689999982715,-5.1360001564,0.0,0.0,0.0,0.0,0.0,0.0,0.0,0.0,0.0,0.0,0.0,0.0,0.0,0.0,0.0,0.0,0.0,0.0,0.0,0.0,0.0,0.0,0.0,0.0,0.0
1452406629998382307,2444,1452406629997923291,sonar_frame,0.0689999982715,1.59899997711,0.0,1.41693043709,1.67177212238,0.0,3.92127275467,2.25650000572,0.0,4.18204593658,0.735137283802,0.0,4.1544713974,-0.730275094509,0.0,4.42529964447,-2.5474998951,0.0,3.32793807983,-3.94922232628,0.0,0.0689999982715,-5.1360001564,0.0,0.0,0.0,0.0,0.0,0.0,0.0,0.0,0.0,0.0,0.0,0.0,0.0,0.0,0.0,0.0,0.0,0.0,0.0,0.0,0.0,0.0,0.0,0.0,0.0
1452406630099529252,2445,1452406630099005010,sonar_frame,0.0689999982715,1.59899997711,0.0,1.41693043709,1.67177212238,0.0,3.92040657997,2.25600004196,0.0,4.17613697052,0.734095394611,0.0,4.1544713974,-0.730275094509,0.0,4.42529964447,-2.5474998951,0.0,3.32793807983,-3.94922232628,0.0,0.0689999982715,-5.1360001564,0.0,0.0,0.0,0.0,0.0,0.0,0.0,0.0,0.0,0.0,0.0,0.0,0.0,0.0,0.0,0.0,0.0,0.0,0.0,0.0,0.0,0.0,0.0,0.0,0.0
1452406630199504340,2446,1452406630198045403,sonar_frame,0.0689999982715,1.59899997711,0.0,1.41693043709,1.67177212238,0.0,3.92040657997,2.25600004196,0.0,4.17613697052,0.734095394611,0.0,4.1544713974,-0.730275094509,0.0,4.42529964447,-2.5474998951,0.0,3.32793807983,-3.94922232628,0.0,0.0689999982715,-5.1360001564,0.0,0.0,0.0,0.0,0.0,0.0,0.0,0.0,0.0,0.0,0.0,0.0,0.0,0.0,0.0,0.0,0.0,0.0,0.0,0.0,0.0,0.0,0.0,0.0,0.0
1452406630299456141,2447,1452406630298937992,sonar_frame,0.0689999982715,1.59899997711,0.0,1.41693043709,1.67177212238,0.0,3.92040657997,2.25600004196,0.0,4.17613697052,0.734095394611,0.0,4.1544713974,-0.730275094509,0.0,4.42529964447,-2.5474998951,0.0,3.32793807983,-3.94922232628,0.0,0.0689999982715,-5.1360001564,0.0,0.0,0.0,0.0,0.0,0.0,0.0,0.0,0.0,0.0,0.0,0.0,0.0,0.0,0.0,0.0,0.0,0.0,0.0,0.0,0.0,0.0,0.0,0.0,0.0
1452406630398607659,2448,1452406630398168886,sonar_frame,0.0689999982715,1.59899997711,0.0,1.41693043709,1.67177212238,0.0,3.92127275467,2.25650000572,0.0,4.16924333572,0.732879817486,0.0,4.1544713974,-0.730275094509,0.0,4.42529964447,-2.5474998951,0.0,3.32793807983,-3.94922232628,0.0,0.0689999982715,-5.1360001564,0.0,0.0,0.0,0.0,0.0,0.0,0.0,0.0,0.0,0.0,0.0,0.0,0.0,0.0,0.0,0.0,0.0,0.0,0.0,0.0,0.0,0.0,0.0,0.0,0.0
1452406630500353521,2449,1452406630498895678,sonar_frame,0.0689999982715,1.59899997711,0.0,1.41693043709,1.67177212238,0.0,3.92127275467,2.25650000572,0.0,4.16924333572,0.732879817486,0.0,4.15348672867,-0.730101466179,0.0,4.42529964447,-2.5474998951,0.0,3.32793807983,-3.94922232628,0.0,0.0689999982715,-5.1360001564,0.0,0.0,0.0,0.0,0.0,0.0,0.0,0.0,0.0,0.0,0.0,0.0,0.0,0.0,0.0,0.0,0.0,0.0,0.0,0.0,0.0,0.0,0.0,0.0,0.0
1452406630598610210,2450,1452406630598171879,sonar_frame,0.0689999982715,1.59800004959,0.0,1.41693043709,1.67177212238,0.0,3.92127275467,2.25650000572,0.0,4.16924333572,0.732879817486,0.0,4.15348672867,-0.730101466179,0.0,4.42529964447,-2.5474998951,0.0,3.32793807983,-3.94922232628,0.0,0.0689999982715,-5.1360001564,0.0,0.0,0.0,0.0,0.0,0.0,0.0,0.0,0.0,0.0,0.0,0.0,0.0,0.0,0.0,0.0,0.0,0.0,0.0,0.0,0.0,0.0,0.0,0.0,0.0
1452406630700359350,2451,1452406630699076257,sonar_frame,0.0689999982715,1.59800004959,0.0,1.41693043709,1.67177212238,0.0,3.92127275467,2.25650000572,0.0,4.16924333572,0.732879817486,0.0,4.15348672867,-0.730101466179,0.0,4.42529964447,-2.5474998951,0.0,3.32793807983,-3.94922232628,0.0,0.0689999982715,-5.1360001564,0.0,0.0,0.0,0.0,0.0,0.0,0.0,0.0,0.0,0.0,0.0,0.0,0.0,0.0,0.0,0.0,0.0,0.0,0.0,0.0,0.0,0.0,0.0,0.0,0.0
1452406630798771317,2452,1452406630798304409,sonar_frame,0.0689999982715,1.59800004959,0.0,1.41693043709,1.67177212238,0.0,3.92127275467,2.25650000572,0.0,4.16924333572,0.732879817486,0.0,4.15348672867,-0.730101466179,0.0,4.42529964447,-2.5474998951,0.0,3.32793807983,-3.94922232628,0.0,0.0689999982715,-5.1360001564,0.0,0.0,0.0,0.0,0.0,0.0,0.0,0.0,0.0,0.0,0.0,0.0,0.0,0.0,0.0,0.0,0.0,0.0,0.0,0.0,0.0,0.0,0.0,0.0,0.0
1452406630899887667,2453,1452406630899208283,sonar_frame,0.0689999982715,1.59899997711,0.0,1.41693043709,1.67177212238,0.0,3.92127275467,2.25650000572,0.0,4.16924333572,0.732879817486,0.0,4.15348672867,-0.730101466179,0.0,4.42529964447,-2.5474998951,0.0,3.32793807983,-3.94922232628,0.0,0.0689999982715,-5.1360001564,0.0,0.0,0.0,0.0,0.0,0.0,0.0,0.0,0.0,0.0,0.0,0.0,0.0,0.0,0.0,0.0,0.0,0.0,0.0,0.0,0.0,0.0,0.0,0.0,0.0
1452406630999073501,2454,1452406630998426173,sonar_frame,0.0689999982715,1.59899997711,0.0,1.41693043709,1.67177212238,0.0,3.92127275467,2.25650000572,0.0,4.16924333572,0.732879817486,0.0,4.15348672867,-0.730101466179,0.0,4.42529964447,-2.5474998951,0.0,3.32793807983,-3.94922232628,0.0,0.0689999982715,-5.1360001564,0.0,0.0,0.0,0.0,0.0,0.0,0.0,0.0,0.0,0.0,0.0,0.0,0.0,0.0,0.0,0.0,0.0,0.0,0.0,0.0,0.0,0.0,0.0,0.0,0.0
1452406631100631821,2455,1452406631099151435,sonar_frame,0.0689999982715,1.59899997711,0.0,1.41693043709,1.67177212238,0.0,3.92127275467,2.25650000572,0.0,4.17613697052,0.734095394611,0.0,4.1544713974,-0.730275094509,0.0,4.4227013588,-2.54600000381,0.0,3.32793807983,-3.94922232628,0.0,0.0689999982715,-5.1360001564,0.0,0.0,0.0,0.0,0.0,0.0,0.0,0.0,0.0,0.0,0.0,0.0,0.0,0.0,0.0,0.0,0.0,0.0,0.0,0.0,0.0,0.0,0.0,0.0,0.0
1452406631199834594,2456,1452406631198424857,sonar_frame,0.0689999982715,1.59899997711,0.0,1.41693043709,1.67177212238,0.0,3.92127275467,2.25650000572,0.0,4.17613697052,0.734095394611,0.0,4.1544713974,-0.730275094509,0.0,4.4227013588,-2.54600000381,0.0,3.32793807983,-3.94922232628,0.0,0.0689999982715,-5.1360001564,0.0,0.0,0.0,0.0,0.0,0.0,0.0,0.0,0.0,0.0,0.0,0.0,0.0,0.0,0.0,0.0,0.0,0.0,0.0,0.0,0.0,0.0,0.0,0.0,0.0
1452406631300962351,2457,1452406631299318685,sonar_frame,0.0689999982715,1.59800004959,0.0,1.41693043709,1.67177212238,0.0,3.9247367382,2.25850009918,0.0,4.17613697052,0.734095394611,0.0,4.1544713974,-0.730275094509,0.0,4.4227013588,-2.54600000381,0.0,3.32793807983,-3.94922232628,0.0,0.0689999982715,-5.1360001564,0.0,0.0,0.0,0.0,0.0,0.0,0.0,0.0,0.0,0.0,0.0,0.0,0.0,0.0,0.0,0.0,0.0,0.0,0.0,0.0,0.0,0.0,0.0,0.0,0.0
1452406631400504149,2458,1452406631398547900,sonar_frame,0.0689999982715,1.59800004959,0.0,1.41693043709,1.67177212238,0.0,3.9247367382,2.25850009918,0.0,4.17909145355,0.734616339207,0.0,4.15348672867,-0.730101466179,0.0,4.4227013588,-2.54600000381,0.0,3.32793807983,-3.94922232628,0.0,0.0689999982715,-5.1360001564,0.0,0.0,0.0,0.0,0.0,0.0,0.0,0.0,0.0,0.0,0.0,0.0,0.0,0.0,0.0,0.0,0.0,0.0,0.0,0.0,0.0,0.0,0.0,0.0,0.0
1452406631501378316,2459,1452406631499426622,sonar_frame,0.0689999982715,1.59800004959,0.0,1.41693043709,1.67177212238,0.0,3.9247367382,2.25850009918,0.0,4.17909145355,0.734616339207,0.0,4.15348672867,-0.730101466179,0.0,4.42529964447,-2.5474998951,0.0,3.32793807983,-3.94922232628,0.0,0.0689999982715,-5.1360001564,0.0,0.0,0.0,0.0,0.0,0.0,0.0,0.0,0.0,0.0,0.0,0.0,0.0,0.0,0.0,0.0,0.0,0.0,0.0,0.0,0.0,0.0,0.0,0.0,0.0
1452406631600349891,2460,1452406631598692250,sonar_frame,0.0689999982715,1.59800004959,0.0,1.41693043709,1.67177212238,0.0,3.9247367382,2.25850009918,0.0,4.17909145355,0.734616339207,0.0,4.15348672867,-0.730101466179,0.0,4.42529964447,-2.5474998951,0.0,3.32793807983,-3.94922232628,0.0,0.0689999982715,-5.1360001564,0.0,0.0,0.0,0.0,0.0,0.0,0.0,0.0,0.0,0.0,0.0,0.0,0.0,0.0,0.0,0.0,0.0,0.0,0.0,0.0,0.0,0.0,0.0,0.0,0.0
1452406631699874543,2461,1452406631699427866,sonar_frame,0.0689999982715,1.59800004959,0.0,1.41693043709,1.67177212238,0.0,3.9247367382,2.25850009918,0.0,4.18598508835,0.735831856728,0.0,4.1544713974,-0.730275094509,0.0,4.42529964447,-2.5474998951,0.0,3.32793807983,-3.94922232628,0.0,0.0689999982715,-5.1360001564,0.0,0.0,0.0,0.0,0.0,0.0,0.0,0.0,0.0,0.0,0.0,0.0,0.0,0.0,0.0,0.0,0.0,0.0,0.0,0.0,0.0,0.0,0.0,0.0,0.0
1452406631799348519,2462,1452406631798680572,sonar_frame,0.0689999982715,1.59800004959,0.0,1.41693043709,1.67177212238,0.0,3.9247367382,2.25850009918,0.0,4.18598508835,0.735831856728,0.0,4.1544713974,-0.730275094509,0.0,4.4227013588,-2.54600000381,0.0,3.32793807983,-3.94922232628,0.0,0.0689999982715,-5.1360001564,0.0,0.0,0.0,0.0,0.0,0.0,0.0,0.0,0.0,0.0,0.0,0.0,0.0,0.0,0.0,0.0,0.0,0.0,0.0,0.0,0.0,0.0,0.0,0.0,0.0
1452406631900266470,2463,1452406631899582250,sonar_frame,0.0689999982715,1.59899997711,0.0,1.41693043709,1.67177212238,0.0,3.9247367382,2.25850009918,0.0,4.18598508835,0.735831856728,0.0,4.1544713974,-0.730275094509,0.0,4.4227013588,-2.54600000381,0.0,3.32793807983,-3.94922232628,0.0,0.0689999982715,-5.1360001564,0.0,0.0,0.0,0.0,0.0,0.0,0.0,0.0,0.0,0.0,0.0,0.0,0.0,0.0,0.0,0.0,0.0,0.0,0.0,0.0,0.0,0.0,0.0,0.0,0.0
1452406631999230002,2464,1452406631998803078,sonar_frame,0.0689999982715,1.59899997711,0.0,1.41693043709,1.67177212238,0.0,3.9247367382,2.25850009918,0.0,4.17219781876,0.733400762081,0.0,4.1544713974,-0.730275094509,0.0,4.4227013588,-2.54600000381,0.0,3.32793807983,-3.94922232628,0.0,0.0689999982715,-5.1360001564,0.0,0.0,0.0,0.0,0.0,0.0,0.0,0.0,0.0,0.0,0.0,0.0,0.0,0.0,0.0,0.0,0.0,0.0,0.0,0.0,0.0,0.0,0.0,0.0,0.0
1452406632100205317,2465,1452406632099679733,sonar_frame,0.0689999982715,1.59899997711,0.0,1.41693043709,1.67177212238,0.0,3.9247367382,2.25850009918,0.0,4.17219781876,0.733400762081,0.0,4.1544713974,-0.730275094509,0.0,4.4227013588,-2.54600000381,0.0,3.32793807983,-3.94922232628,0.0,0.0689999982715,-5.1360001564,0.0,0.0,0.0,0.0,0.0,0.0,0.0,0.0,0.0,0.0,0.0,0.0,0.0,0.0,0.0,0.0,0.0,0.0,0.0,0.0,0.0,0.0,0.0,0.0,0.0
1452406632200370686,2466,1452406632198943384,sonar_frame,0.0689999982715,1.59800004959,0.0,1.41693043709,1.67177212238,0.0,3.9247367382,2.25850009918,0.0,4.17219781876,0.733400762081,0.0,4.1544713974,-0.730275094509,0.0,4.4227013588,-2.54600000381,0.0,3.32793807983,-3.94922232628,0.0,0.0689999982715,-5.1360001564,0.0,0.0,0.0,0.0,0.0,0.0,0.0,0.0,0.0,0.0,0.0,0.0,0.0,0.0,0.0,0.0,0.0,0.0,0.0,0.0,0.0,0.0,0.0,0.0,0.0
1452406632300289149,2467,1452406632299677636,sonar_frame,0.0689999982715,1.59800004959,0.0,1.41693043709,1.67177212238,0.0,3.92733478546,2.25999999046,0.0,4.18992471695,0.736526429653,0.0,4.1544713974,-0.730275094509,0.0,4.4227013588,-2.54600000381,0.0,3.32793807983,-3.94922232628,0.0,0.0689999982715,-5.1360001564,0.0,0.0,0.0,0.0,0.0,0.0,0.0,0.0,0.0,0.0,0.0,0.0,0.0,0.0,0.0,0.0,0.0,0.0,0.0,0.0,0.0,0.0,0.0,0.0,0.0
1452406632399338856,2468,1452406632398923721,sonar_frame,0.0689999982715,1.59800004959,0.0,1.41693043709,1.67177212238,0.0,3.92733478546,2.25999999046,0.0,4.18992471695,0.736526429653,0.0,4.1564412117,-0.730622410774,0.0,4.4227013588,-2.54600000381,0.0,3.32793807983,-3.94922232628,0.0,0.0689999982715,-5.1360001564,0.0,0.0,0.0,0.0,0.0,0.0,0.0,0.0,0.0,0.0,0.0,0.0,0.0,0.0,0.0,0.0,0.0,0.0,0.0,0.0,0.0,0.0,0.0,0.0,0.0
1452406632500395686,2469,1452406632499834048,sonar_frame,0.0689999982715,1.59899997711,0.0,1.41693043709,1.67177212238,0.0,3.92733478546,2.25999999046,0.0,4.18992471695,0.736526429653,0.0,4.1564412117,-0.730622410774,0.0,4.4227013588,-2.54600000381,0.0,3.32793807983,-3.94922232628,0.0,0.0689999982715,-5.1360001564,0.0,0.0,0.0,0.0,0.0,0.0,0.0,0.0,0.0,0.0,0.0,0.0,0.0,0.0,0.0,0.0,0.0,0.0,0.0,0.0,0.0,0.0,0.0,0.0,0.0
1452406632599538613,2470,1452406632599067261,sonar_frame,0.0689999982715,1.59899997711,0.0,1.41693043709,1.67177212238,0.0,3.92733478546,2.25999999046,0.0,4.18992471695,0.736526429653,0.0,4.1564412117,-0.730622410774,0.0,4.4227013588,-2.54600000381,0.0,3.32793807983,-3.94922232628,0.0,0.0689999982715,-5.1360001564,0.0,0.0,0.0,0.0,0.0,0.0,0.0,0.0,0.0,0.0,0.0,0.0,0.0,0.0,0.0,0.0,0.0,0.0,0.0,0.0,0.0,0.0,0.0,0.0,0.0
1452406632700652371,2471,1452406632699923547,sonar_frame,0.0689999982715,1.59899997711,0.0,1.41693043709,1.67177212238,0.0,3.92733478546,2.25999999046,0.0,4.18598508835,0.735831856728,0.0,4.1544713974,-0.730275094509,0.0,4.4227013588,-2.54600000381,0.0,3.32793807983,-3.94922232628,0.0,0.0689999982715,-5.1360001564,0.0,0.0,0.0,0.0,0.0,0.0,0.0,0.0,0.0,0.0,0.0,0.0,0.0,0.0,0.0,0.0,0.0,0.0,0.0,0.0,0.0,0.0,0.0,0.0,0.0
1452406632799774617,2472,1452406632799136028,sonar_frame,0.0689999982715,1.59899997711,0.0,1.41693043709,1.67177212238,0.0,3.92733478546,2.25999999046,0.0,4.18598508835,0.735831856728,0.0,4.1544713974,-0.730275094509,0.0,4.4227013588,-2.54600000381,0.0,3.32793807983,-3.94922232628,0.0,0.0689999982715,-5.1360001564,0.0,0.0,0.0,0.0,0.0,0.0,0.0,0.0,0.0,0.0,0.0,0.0,0.0,0.0,0.0,0.0,0.0,0.0,0.0,0.0,0.0,0.0,0.0,0.0,0.0
1452406632900510672,2473,1452406632899883128,sonar_frame,0.0689999982715,1.59899997711,0.0,1.41693043709,1.67177212238,0.0,3.92733478546,2.25999999046,0.0,4.18598508835,0.735831856728,0.0,4.1544713974,-0.730275094509,0.0,4.4227013588,-2.54600000381,0.0,3.32793807983,-3.94922232628,0.0,0.0689999982715,-5.1360001564,0.0,0.0,0.0,0.0,0.0,0.0,0.0,0.0,0.0,0.0,0.0,0.0,0.0,0.0,0.0,0.0,0.0,0.0,0.0,0.0,0.0,0.0,0.0,0.0,0.0
1452406632999674872,2474,1452406632999172346,sonar_frame,0.0689999982715,1.59899997711,0.0,1.41693043709,1.67177212238,0.0,3.92733478546,2.25999999046,0.0,4.17909145355,0.734616339207,0.0,4.1544713974,-0.730275094509,0.0,4.4227013588,-2.54600000381,0.0,3.32793807983,-3.94922232628,0.0,0.0689999982715,-5.1360001564,0.0,0.0,0.0,0.0,0.0,0.0,0.0,0.0,0.0,0.0,0.0,0.0,0.0,0.0,0.0,0.0,0.0,0.0,0.0,0.0,0.0,0.0,0.0,0.0,0.0
1452406633100675099,2475,1452406633100075583,sonar_frame,0.0689999982715,1.59899997711,0.0,1.41693043709,1.67177212238,0.0,3.92733478546,2.25999999046,0.0,4.17909145355,0.734616339207,0.0,4.1544713974,-0.730275094509,0.0,4.42443323135,-2.54699993134,0.0,3.32793807983,-3.94922232628,0.0,0.0689999982715,-5.1360001564,0.0,0.0,0.0,0.0,0.0,0.0,0.0,0.0,0.0,0.0,0.0,0.0,0.0,0.0,0.0,0.0,0.0,0.0,0.0,0.0,0.0,0.0,0.0,0.0,0.0
1452406633199743841,2476,1452406633199311030,sonar_frame,0.0689999982715,1.59899997711,0.0,1.41693043709,1.67177212238,0.0,3.92733478546,2.25999999046,0.0,4.17909145355,0.734616339207,0.0,4.1544713974,-0.730275094509,0.0,4.42443323135,-2.54699993134,0.0,3.32793807983,-3.94922232628,0.0,0.0689999982715,-5.1360001564,0.0,0.0,0.0,0.0,0.0,0.0,0.0,0.0,0.0,0.0,0.0,0.0,0.0,0.0,0.0,0.0,0.0,0.0,0.0,0.0,0.0,0.0,0.0,0.0,0.0
1452406633301467431,2477,1452406633300025902,sonar_frame,0.0689999982715,1.59899997711,0.0,1.41693043709,1.67177212238,0.0,3.92733478546,2.25999999046,0.0,4.17613697052,0.734095394611,0.0,4.1564412117,-0.730622410774,0.0,4.42443323135,-2.54699993134,0.0,3.32793807983,-3.94922232628,0.0,0.0689999982715,-5.1360001564,0.0,0.0,0.0,0.0,0.0,0.0,0.0,0.0,0.0,0.0,0.0,0.0,0.0,0.0,0.0,0.0,0.0,0.0,0.0,0.0,0.0,0.0,0.0,0.0,0.0
1452406633400898504,2478,1452406633399423934,sonar_frame,0.0689999982715,1.59899997711,0.0,1.41693043709,1.67177212238,0.0,3.92733478546,2.25999999046,0.0,4.17613697052,0.734095394611,0.0,4.1564412117,-0.730622410774,0.0,4.42529964447,-2.5474998951,0.0,3.32793807983,-3.94922232628,0.0,0.0689999982715,-5.1360001564,0.0,0.0,0.0,0.0,0.0,0.0,0.0,0.0,0.0,0.0,0.0,0.0,0.0,0.0,0.0,0.0,0.0,0.0,0.0,0.0,0.0,0.0,0.0,0.0,0.0
1452406633501546887,2479,1452406633500157747,sonar_frame,0.0689999982715,1.59899997711,0.0,1.41693043709,1.67177212238,0.0,3.92733478546,2.25999999046,0.0,4.17613697052,0.734095394611,0.0,4.1564412117,-0.730622410774,0.0,4.42529964447,-2.5474998951,0.0,3.32793807983,-3.94922232628,0.0,0.0689999982715,-5.1360001564,0.0,0.0,0.0,0.0,0.0,0.0,0.0,0.0,0.0,0.0,0.0,0.0,0.0,0.0,0.0,0.0,0.0,0.0,0.0,0.0,0.0,0.0,0.0,0.0,0.0
1452406633600962465,2480,1452406633599424902,sonar_frame,0.0689999982715,1.59899997711,0.0,1.41693043709,1.67177212238,0.0,3.9247367382,2.25850009918,0.0,4.17909145355,0.734616339207,0.0,4.1564412117,-0.730622410774,0.0,4.42529964447,-2.5474998951,0.0,3.32793807983,-3.94922232628,0.0,0.0689999982715,-5.1360001564,0.0,0.0,0.0,0.0,0.0,0.0,0.0,0.0,0.0,0.0,0.0,0.0,0.0,0.0,0.0,0.0,0.0,0.0,0.0,0.0,0.0,0.0,0.0,0.0,0.0
1452406633701925950,2481,1452406633700376304,sonar_frame,0.0689999982715,1.59899997711,0.0,1.41693043709,1.67177212238,0.0,3.9247367382,2.25850009918,0.0,4.17909145355,0.734616339207,0.0,4.15348672867,-0.730101466179,0.0,4.42529964447,-2.5474998951,0.0,3.32793807983,-3.94922232628,0.0,0.0689999982715,-5.1360001564,0.0,0.0,0.0,0.0,0.0,0.0,0.0,0.0,0.0,0.0,0.0,0.0,0.0,0.0,0.0,0.0,0.0,0.0,0.0,0.0,0.0,0.0,0.0,0.0,0.0
1452406633801149621,2482,1452406633799584881,sonar_frame,0.0689999982715,1.59899997711,0.0,1.41693043709,1.67177212238,0.0,3.9247367382,2.25850009918,0.0,4.17909145355,0.734616339207,0.0,4.15348672867,-0.730101466179,0.0,4.42529964447,-2.5474998951,0.0,3.32793807983,-3.94922232628,0.0,0.0689999982715,-5.1360001564,0.0,0.0,0.0,0.0,0.0,0.0,0.0,0.0,0.0,0.0,0.0,0.0,0.0,0.0,0.0,0.0,0.0,0.0,0.0,0.0,0.0,0.0,0.0,0.0,0.0
1452406633901104137,2483,1452406633900294282,sonar_frame,0.0689999982715,1.59899997711,0.0,1.41693043709,1.67177212238,0.0,3.9256029129,2.25900006294,0.0,4.19287872314,0.737047374249,0.0,4.15348672867,-0.730101466179,0.0,4.42529964447,-2.5474998951,0.0,3.32793807983,-3.94922232628,0.0,0.0689999982715,-5.1360001564,0.0,0.0,0.0,0.0,0.0,0.0,0.0,0.0,0.0,0.0,0.0,0.0,0.0,0.0,0.0,0.0,0.0,0.0,0.0,0.0,0.0,0.0,0.0,0.0,0.0
1452406634001113097,2484,1452406633999559656,sonar_frame,0.0689999982715,1.59899997711,0.0,1.41693043709,1.67177212238,0.0,3.9256029129,2.25900006294,0.0,4.19287872314,0.737047374249,0.0,4.15348672867,-0.730101466179,0.0,4.42529964447,-2.5474998951,0.0,3.32793807983,-3.94922232628,0.0,0.0689999982715,-5.1360001564,0.0,0.0,0.0,0.0,0.0,0.0,0.0,0.0,0.0,0.0,0.0,0.0,0.0,0.0,0.0,0.0,0.0,0.0,0.0,0.0,0.0,0.0,0.0,0.0,0.0
1452406634101851624,2485,1452406634100413738,sonar_frame,0.0689999982715,1.59800004959,0.0,1.41693043709,1.67177212238,0.0,3.9256029129,2.25900006294,0.0,4.19287872314,0.737047374249,0.0,4.15348672867,-0.730101466179,0.0,4.42529964447,-2.5474998951,0.0,3.32793807983,-3.94922232628,0.0,0.0689999982715,-5.1360001564,0.0,0.0,0.0,0.0,0.0,0.0,0.0,0.0,0.0,0.0,0.0,0.0,0.0,0.0,0.0,0.0,0.0,0.0,0.0,0.0,0.0,0.0,0.0,0.0,0.0
1452406634201107179,2486,1452406634199675136,sonar_frame,0.0689999982715,1.59800004959,0.0,1.41693043709,1.67177212238,0.0,3.9247367382,2.25850009918,0.0,4.19287872314,0.737047374249,0.0,4.15348672867,-0.730101466179,0.0,4.42529964447,-2.5474998951,0.0,3.32793807983,-3.94922232628,0.0,0.0689999982715,-5.1360001564,0.0,0.0,0.0,0.0,0.0,0.0,0.0,0.0,0.0,0.0,0.0,0.0,0.0,0.0,0.0,0.0,0.0,0.0,0.0,0.0,0.0,0.0,0.0,0.0,0.0
1452406634301036902,2487,1452406634300566189,sonar_frame,0.0689999982715,1.59800004959,0.0,1.41693043709,1.67177212238,0.0,3.9247367382,2.25850009918,0.0,4.19878768921,0.738089263439,0.0,4.1544713974,-0.730275094509,0.0,4.42529964447,-2.5474998951,0.0,3.32793807983,-3.94922232628,0.0,0.0689999982715,-5.1360001564,0.0,0.0,0.0,0.0,0.0,0.0,0.0,0.0,0.0,0.0,0.0,0.0,0.0,0.0,0.0,0.0,0.0,0.0,0.0,0.0,0.0,0.0,0.0,0.0,0.0
1452406634400280007,2488,1452406634399806737,sonar_frame,0.0689999982715,1.59800004959,0.0,1.41693043709,1.67177212238,0.0,3.9247367382,2.25850009918,0.0,4.19878768921,0.738089263439,0.0,4.1544713974,-0.730275094509,0.0,4.42529964447,-2.5474998951,0.0,3.32793807983,-3.94922232628,0.0,0.0689999982715,-5.1360001564,0.0,0.0,0.0,0.0,0.0,0.0,0.0,0.0,0.0,0.0,0.0,0.0,0.0,0.0,0.0,0.0,0.0,0.0,0.0,0.0,0.0,0.0,0.0,0.0,0.0
1452406634501961327,2489,1452406634500486263,sonar_frame,0.0689999982715,1.59899997711,0.0,1.41693043709,1.67177212238,0.0,3.9247367382,2.25850009918,0.0,4.19878768921,0.738089263439,0.0,4.1544713974,-0.730275094509,0.0,4.42529964447,-2.5474998951,0.0,3.32793807983,-3.94922232628,0.0,0.0689999982715,-5.1360001564,0.0,0.0,0.0,0.0,0.0,0.0,0.0,0.0,0.0,0.0,0.0,0.0,0.0,0.0,0.0,0.0,0.0,0.0,0.0,0.0,0.0,0.0,0.0,0.0,0.0
1452406634601427423,2490,1452406634599927278,sonar_frame,0.0689999982715,1.59899997711,0.0,1.41693043709,1.67177212238,0.0,3.9247367382,2.25850009918,0.0,4.18303060532,0.735310912132,0.0,4.1564412117,-0.730622410774,0.0,4.42529964447,-2.5474998951,0.0,3.32793807983,-3.94922232628,0.0,0.0689999982715,-5.1360001564,0.0,0.0,0.0,0.0,0.0,0.0,0.0,0.0,0.0,0.0,0.0,0.0,0.0,0.0,0.0,0.0,0.0,0.0,0.0,0.0,0.0,0.0,0.0,0.0,0.0
1452406634702117493,2491,1452406634700673289,sonar_frame,0.0689999982715,1.59899997711,0.0,1.41693043709,1.67177212238,0.0,3.9247367382,2.25850009918,0.0,4.18303060532,0.735310912132,0.0,4.1564412117,-0.730622410774,0.0,4.4227013588,-2.54600000381,0.0,3.32793807983,-3.94922232628,0.0,0.0689999982715,-5.1360001564,0.0,0.0,0.0,0.0,0.0,0.0,0.0,0.0,0.0,0.0,0.0,0.0,0.0,0.0,0.0,0.0,0.0,0.0,0.0,0.0,0.0,0.0,0.0,0.0,0.0
1452406634801419445,2492,1452406634799868395,sonar_frame,0.0689999982715,1.59899997711,0.0,1.41693043709,1.67177212238,0.0,3.9247367382,2.25850009918,0.0,4.18303060532,0.735310912132,0.0,4.1564412117,-0.730622410774,0.0,4.4227013588,-2.54600000381,0.0,3.32793807983,-3.94922232628,0.0,0.0689999982715,-5.1360001564,0.0,0.0,0.0,0.0,0.0,0.0,0.0,0.0,0.0,0.0,0.0,0.0,0.0,0.0,0.0,0.0,0.0,0.0,0.0,0.0,0.0,0.0,0.0,0.0,0.0
1452406634902391746,2493,1452406634900834367,sonar_frame,0.0689999982715,1.59899997711,0.0,1.41693043709,1.67177212238,0.0,3.9256029129,2.25900006294,0.0,4.17219781876,0.733400762081,0.0,4.1564412117,-0.730622410774,0.0,4.4227013588,-2.54600000381,0.0,3.32793807983,-3.94922232628,0.0,0.0689999982715,-5.1360001564,0.0,0.0,0.0,0.0,0.0,0.0,0.0,0.0,0.0,0.0,0.0,0.0,0.0,0.0,0.0,0.0,0.0,0.0,0.0,0.0,0.0,0.0,0.0,0.0,0.0
1452406635001527313,2494,1452406635000085713,sonar_frame,0.0689999982715,1.59899997711,0.0,1.41693043709,1.67177212238,0.0,3.9256029129,2.25900006294,0.0,4.17219781876,0.733400762081,0.0,4.1564412117,-0.730622410774,0.0,4.4227013588,-2.54600000381,0.0,3.32793807983,-3.94922232628,0.0,0.0689999982715,-5.1360001564,0.0,0.0,0.0,0.0,0.0,0.0,0.0,0.0,0.0,0.0,0.0,0.0,0.0,0.0,0.0,0.0,0.0,0.0,0.0,0.0,0.0,0.0,0.0,0.0,0.0
1452406635101609829,2495,1452406635100928099,sonar_frame,0.0689999982715,1.59800004959,0.0,1.41693043709,1.67177212238,0.0,3.9256029129,2.25900006294,0.0,4.17219781876,0.733400762081,0.0,4.1564412117,-0.730622410774,0.0,4.4227013588,-2.54600000381,0.0,3.32793807983,-3.94922232628,0.0,0.0689999982715,-5.1360001564,0.0,0.0,0.0,0.0,0.0,0.0,0.0,0.0,0.0,0.0,0.0,0.0,0.0,0.0,0.0,0.0,0.0,0.0,0.0,0.0,0.0,0.0,0.0,0.0,0.0
1452406635202211593,2496,1452406635200021958,sonar_frame,0.0689999982715,1.59800004959,0.0,1.41693043709,1.67177212238,0.0,3.92733478546,2.25999999046,0.0,4.18303060532,0.735310912132,0.0,4.1564412117,-0.730622410774,0.0,4.4227013588,-2.54600000381,0.0,3.32793807983,-3.94922232628,0.0,0.0689999982715,-5.1360001564,0.0,0.0,0.0,0.0,0.0,0.0,0.0,0.0,0.0,0.0,0.0,0.0,0.0,0.0,0.0,0.0,0.0,0.0,0.0,0.0,0.0,0.0,0.0,0.0,0.0
1452406635303063898,2497,1452406635300926317,sonar_frame,0.0689999982715,1.59800004959,0.0,1.41693043709,1.67177212238,0.0,3.92733478546,2.25999999046,0.0,4.18303060532,0.735310912132,0.0,4.1564412117,-0.730622410774,0.0,4.42529964447,-2.5474998951,0.0,3.32793807983,-3.94922232628,0.0,0.0689999982715,-5.1360001564,0.0,0.0,0.0,0.0,0.0,0.0,0.0,0.0,0.0,0.0,0.0,0.0,0.0,0.0,0.0,0.0,0.0,0.0,0.0,0.0,0.0,0.0,0.0,0.0,0.0
1452406635402395211,2498,1452406635400194910,sonar_frame,0.0689999982715,1.59899997711,0.0,1.41693043709,1.67177212238,0.0,3.92733478546,2.25999999046,0.0,4.18303060532,0.735310912132,0.0,4.1564412117,-0.730622410774,0.0,4.42529964447,-2.5474998951,0.0,3.32793807983,-3.94922232628,0.0,0.0689999982715,-5.1360001564,0.0,0.0,0.0,0.0,0.0,0.0,0.0,0.0,0.0,0.0,0.0,0.0,0.0,0.0,0.0,0.0,0.0,0.0,0.0,0.0,0.0,0.0,0.0,0.0,0.0
1452406635503300115,2499,1452406635501053002,sonar_frame,0.0689999982715,1.59899997711,0.0,1.41693043709,1.67177212238,0.0,3.92733478546,2.25999999046,0.0,4.18992471695,0.736526429653,0.0,4.1564412117,-0.730622410774,0.0,4.42529964447,-2.5474998951,0.0,3.32793807983,-3.94922232628,0.0,0.0689999982715,-5.1360001564,0.0,0.0,0.0,0.0,0.0,0.0,0.0,0.0,0.0,0.0,0.0,0.0,0.0,0.0,0.0,0.0,0.0,0.0,0.0,0.0,0.0,0.0,0.0,0.0,0.0
1452406635602369146,2500,1452406635600229506,sonar_frame,0.0689999982715,1.59899997711,0.0,1.41693043709,1.67177212238,0.0,3.92733478546,2.25999999046,0.0,4.18992471695,0.736526429653,0.0,4.1564412117,-0.730622410774,0.0,4.42529964447,-2.5474998951,0.0,3.32793807983,-3.94922232628,0.0,0.0689999982715,-5.1360001564,0.0,0.0,0.0,0.0,0.0,0.0,0.0,0.0,0.0,0.0,0.0,0.0,0.0,0.0,0.0,0.0,0.0,0.0,0.0,0.0,0.0,0.0,0.0,0.0,0.0
1452406635703228067,2501,1452406635701054259,sonar_frame,0.0689999982715,1.59800004959,0.0,1.41693043709,1.67177212238,0.0,3.92733478546,2.25999999046,0.0,4.18992471695,0.736526429653,0.0,4.1564412117,-0.730622410774,0.0,4.42529964447,-2.5474998951,0.0,3.32793807983,-3.94922232628,0.0,0.0689999982715,-5.1360001564,0.0,0.0,0.0,0.0,0.0,0.0,0.0,0.0,0.0,0.0,0.0,0.0,0.0,0.0,0.0,0.0,0.0,0.0,0.0,0.0,0.0,0.0,0.0,0.0,0.0
1452406635800986946,2502,1452406635800311457,sonar_frame,0.0689999982715,1.59800004959,0.0,1.41693043709,1.67177212238,0.0,3.92733478546,2.25999999046,0.0,4.18992471695,0.736526429653,0.0,4.1564412117,-0.730622410774,0.0,4.42529964447,-2.5474998951,0.0,3.32793807983,-3.94922232628,0.0,0.0689999982715,-5.1360001564,0.0,0.0,0.0,0.0,0.0,0.0,0.0,0.0,0.0,0.0,0.0,0.0,0.0,0.0,0.0,0.0,0.0,0.0,0.0,0.0,0.0,0.0,0.0,0.0,0.0
1452406635901670378,2503,1452406635901147380,sonar_frame,0.0689999982715,1.59800004959,0.0,1.41693043709,1.67177212238,0.0,3.92733478546,2.25999999046,0.0,4.17219781876,0.733400762081,0.0,4.15742588043,-0.730796039104,0.0,4.42529964447,-2.5474998951,0.0,3.32793807983,-3.94922232628,0.0,0.0689999982715,-5.1360001564,0.0,0.0,0.0,0.0,0.0,0.0,0.0,0.0,0.0,0.0,0.0,0.0,0.0,0.0,0.0,0.0,0.0,0.0,0.0,0.0,0.0,0.0,0.0,0.0,0.0
1452406636000898695,2504,1452406636000428418,sonar_frame,0.0689999982715,1.59800004959,0.0,1.41693043709,1.67177212238,0.0,3.92733478546,2.25999999046,0.0,4.17219781876,0.733400762081,0.0,4.15742588043,-0.730796039104,0.0,4.42529964447,-2.5474998951,0.0,3.32793807983,-3.94922232628,0.0,0.0689999982715,-5.1360001564,0.0,0.0,0.0,0.0,0.0,0.0,0.0,0.0,0.0,0.0,0.0,0.0,0.0,0.0,0.0,0.0,0.0,0.0,0.0,0.0,0.0,0.0,0.0,0.0,0.0
1452406636101743562,2505,1452406636101176366,sonar_frame,0.0689999982715,1.59899997711,0.0,1.41693043709,1.67177212238,0.0,3.92733478546,2.25999999046,0.0,4.17219781876,0.733400762081,0.0,4.15742588043,-0.730796039104,0.0,4.42529964447,-2.5474998951,0.0,3.32793807983,-3.94922232628,0.0,0.0689999982715,-5.1360001564,0.0,0.0,0.0,0.0,0.0,0.0,0.0,0.0,0.0,0.0,0.0,0.0,0.0,0.0,0.0,0.0,0.0,0.0,0.0,0.0,0.0,0.0,0.0,0.0,0.0
1452406636200939659,2506,1452406636200443003,sonar_frame,0.0689999982715,1.59899997711,0.0,1.41693043709,1.67177212238,0.0,3.92733478546,2.25999999046,0.0,4.18598508835,0.735831856728,0.0,4.1544713974,-0.730275094509,0.0,4.42529964447,-2.5474998951,0.0,3.32793807983,-3.94922232628,0.0,0.0689999982715,-5.1360001564,0.0,0.0,0.0,0.0,0.0,0.0,0.0,0.0,0.0,0.0,0.0,0.0,0.0,0.0,0.0,0.0,0.0,0.0,0.0,0.0,0.0,0.0,0.0,0.0,0.0
1452406636301741980,2507,1452406636301316621,sonar_frame,0.0689999982715,1.59899997711,0.0,1.41693043709,1.67177212238,0.0,3.92733478546,2.25999999046,0.0,4.18598508835,0.735831856728,0.0,4.1544713974,-0.730275094509,0.0,4.4227013588,-2.54600000381,0.0,3.32793807983,-3.94922232628,0.0,0.0689999982715,-5.1360001564,0.0,0.0,0.0,0.0,0.0,0.0,0.0,0.0,0.0,0.0,0.0,0.0,0.0,0.0,0.0,0.0,0.0,0.0,0.0,0.0,0.0,0.0,0.0,0.0,0.0
1452406636401101276,2508,1452406636400554449,sonar_frame,0.0689999982715,1.59800004959,0.0,1.41693043709,1.67177212238,0.0,3.92733478546,2.25999999046,0.0,4.18598508835,0.735831856728,0.0,4.1544713974,-0.730275094509,0.0,4.4227013588,-2.54600000381,0.0,3.32793807983,-3.94922232628,0.0,0.0689999982715,-5.1360001564,0.0,0.0,0.0,0.0,0.0,0.0,0.0,0.0,0.0,0.0,0.0,0.0,0.0,0.0,0.0,0.0,0.0,0.0,0.0,0.0,0.0,0.0,0.0,0.0,0.0
1452406636501969834,2509,1452406636501444902,sonar_frame,0.0689999982715,1.59800004959,0.0,1.41693043709,1.67177212238,0.0,3.92820096016,2.26049995422,0.0,4.18893957138,0.736352801323,0.0,4.15348672867,-0.730101466179,0.0,4.4227013588,-2.54600000381,0.0,3.32793807983,-3.94922232628,0.0,0.0689999982715,-5.1360001564,0.0,0.0,0.0,0.0,0.0,0.0,0.0,0.0,0.0,0.0,0.0,0.0,0.0,0.0,0.0,0.0,0.0,0.0,0.0,0.0,0.0,0.0,0.0,0.0,0.0
1452406636601130194,2510,1452406636600693980,sonar_frame,0.0689999982715,1.59800004959,0.0,1.41693043709,1.67177212238,0.0,3.92820096016,2.26049995422,0.0,4.18893957138,0.736352801323,0.0,4.15348672867,-0.730101466179,0.0,4.4227013588,-2.54600000381,0.0,3.32793807983,-3.94922232628,0.0,0.0689999982715,-5.1360001564,0.0,0.0,0.0,0.0,0.0,0.0,0.0,0.0,0.0,0.0,0.0,0.0,0.0,0.0,0.0,0.0,0.0,0.0,0.0,0.0,0.0,0.0,0.0,0.0,0.0
1452406636701882593,2511,1452406636701389724,sonar_frame,0.0689999982715,1.59800004959,0.0,1.41693043709,1.67177212238,0.0,3.92820096016,2.26049995422,0.0,4.18893957138,0.736352801323,0.0,4.15348672867,-0.730101466179,0.0,4.4227013588,-2.54600000381,0.0,3.32793807983,-3.94922232628,0.0,0.0689999982715,-5.1360001564,0.0,0.0,0.0,0.0,0.0,0.0,0.0,0.0,0.0,0.0,0.0,0.0,0.0,0.0,0.0,0.0,0.0,0.0,0.0,0.0,0.0,0.0,0.0,0.0,0.0
1452406636801054211,2512,1452406636800616695,sonar_frame,0.0689999982715,1.59800004959,0.0,1.41693043709,1.67177212238,0.0,3.9247367382,2.25850009918,0.0,4.18303060532,0.735310912132,0.0,4.15348672867,-0.730101466179,0.0,4.4227013588,-2.54600000381,0.0,3.32793807983,-3.94922232628,0.0,0.0689999982715,-5.1360001564,0.0,0.0,0.0,0.0,0.0,0.0,0.0,0.0,0.0,0.0,0.0,0.0,0.0,0.0,0.0,0.0,0.0,0.0,0.0,0.0,0.0,0.0,0.0,0.0,0.0
1452406636902006224,2513,1452406636901553050,sonar_frame,0.0689999982715,1.59800004959,0.0,1.41693043709,1.67177212238,0.0,3.9247367382,2.25850009918,0.0,4.18303060532,0.735310912132,0.0,4.1544713974,-0.730275094509,0.0,4.42529964447,-2.5474998951,0.0,3.32793807983,-3.94922232628,0.0,0.0689999982715,-5.1360001564,0.0,0.0,0.0,0.0,0.0,0.0,0.0,0.0,0.0,0.0,0.0,0.0,0.0,0.0,0.0,0.0,0.0,0.0,0.0,0.0,0.0,0.0,0.0,0.0,0.0
1452406637001364647,2514,1452406637000928594,sonar_frame,0.0689999982715,1.59899997711,0.0,1.41693043709,1.67177212238,0.0,3.9247367382,2.25850009918,0.0,4.18303060532,0.735310912132,0.0,4.1544713974,-0.730275094509,0.0,4.42529964447,-2.5474998951,0.0,3.32793807983,-3.94922232628,0.0,0.0689999982715,-5.1360001564,0.0,0.0,0.0,0.0,0.0,0.0,0.0,0.0,0.0,0.0,0.0,0.0,0.0,0.0,0.0,0.0,0.0,0.0,0.0,0.0,0.0,0.0,0.0,0.0,0.0
1452406637103814812,2515,1452406637101666105,sonar_frame,0.0689999982715,1.59899997711,0.0,1.41693043709,1.67177212238,0.0,3.92213869095,2.25699996948,0.0,4.19287872314,0.737047374249,0.0,4.1544713974,-0.730275094509,0.0,4.42529964447,-2.5474998951,0.0,3.32793807983,-3.94922232628,0.0,0.0689999982715,-5.1360001564,0.0,0.0,0.0,0.0,0.0,0.0,0.0,0.0,0.0,0.0,0.0,0.0,0.0,0.0,0.0,0.0,0.0,0.0,0.0,0.0,0.0,0.0,0.0,0.0,0.0
1452406637203097091,2516,1452406637200943581,sonar_frame,0.0689999982715,1.59899997711,0.0,1.41693043709,1.67177212238,0.0,3.92213869095,2.25699996948,0.0,4.19287872314,0.737047374249,0.0,4.1544713974,-0.730275094509,0.0,4.42529964447,-2.5474998951,0.0,3.32793807983,-3.94922232628,0.0,0.0689999982715,-5.1360001564,0.0,0.0,0.0,0.0,0.0,0.0,0.0,0.0,0.0,0.0,0.0,0.0,0.0,0.0,0.0,0.0,0.0,0.0,0.0,0.0,0.0,0.0,0.0,0.0,0.0
1452406637302237062,2517,1452406637301745260,sonar_frame,0.0689999982715,1.59800004959,0.0,1.41693043709,1.67177212238,0.0,3.92213869095,2.25699996948,0.0,4.19287872314,0.737047374249,0.0,4.1544713974,-0.730275094509,0.0,4.42529964447,-2.5474998951,0.0,3.32793807983,-3.94922232628,0.0,0.0689999982715,-5.1360001564,0.0,0.0,0.0,0.0,0.0,0.0,0.0,0.0,0.0,0.0,0.0,0.0,0.0,0.0,0.0,0.0,0.0,0.0,0.0,0.0,0.0,0.0,0.0,0.0,0.0
1452406637401383141,2518,1452406637400929826,sonar_frame,0.0689999982715,1.59800004959,0.0,1.41693043709,1.67177212238,0.0,3.92213869095,2.25699996948,0.0,4.19287872314,0.737047374249,0.0,4.1544713974,-0.730275094509,0.0,4.42529964447,-2.5474998951,0.0,3.32793807983,-3.94922232628,0.0,0.0689999982715,-5.1360001564,0.0,0.0,0.0,0.0,0.0,0.0,0.0,0.0,0.0,0.0,0.0,0.0,0.0,0.0,0.0,0.0,0.0,0.0,0.0,0.0,0.0,0.0,0.0,0.0,0.0
1452406637502400613,2519,1452406637501823493,sonar_frame,0.0689999982715,1.59800004959,0.0,1.41693043709,1.67177212238,0.0,3.92213869095,2.25699996948,0.0,4.18303060532,0.735310912132,0.0,4.1544713974,-0.730275094509,0.0,4.42529964447,-2.5474998951,0.0,3.32793807983,-3.94922232628,0.0,0.0689999982715,-5.1360001564,0.0,0.0,0.0,0.0,0.0,0.0,0.0,0.0,0.0,0.0,0.0,0.0,0.0,0.0,0.0,0.0,0.0,0.0,0.0,0.0,0.0,0.0,0.0,0.0,0.0
1452406637601583504,2520,1452406637601123753,sonar_frame,0.0689999982715,1.59800004959,0.0,1.41693043709,1.67177212238,0.0,3.92213869095,2.25699996948,0.0,4.18303060532,0.735310912132,0.0,4.1544713974,-0.730275094509,0.0,4.42529964447,-2.5474998951,0.0,3.32793807983,-3.94922232628,0.0,0.0689999982715,-5.1360001564,0.0,0.0,0.0,0.0,0.0,0.0,0.0,0.0,0.0,0.0,0.0,0.0,0.0,0.0,0.0,0.0,0.0,0.0,0.0,0.0,0.0,0.0,0.0,0.0,0.0
1452406637702378408,2521,1452406637701916324,sonar_frame,0.0689999982715,1.59800004959,0.0,1.41693043709,1.67177212238,0.0,3.92387080193,2.257999897,0.0,4.18303060532,0.735310912132,0.0,4.1544713974,-0.730275094509,0.0,4.42529964447,-2.5474998951,0.0,3.32793807983,-3.94922232628,0.0,0.0689999982715,-5.1360001564,0.0,0.0,0.0,0.0,0.0,0.0,0.0,0.0,0.0,0.0,0.0,0.0,0.0,0.0,0.0,0.0,0.0,0.0,0.0,0.0,0.0,0.0,0.0,0.0,0.0
1452406637801731467,2522,1452406637801206907,sonar_frame,0.0689999982715,1.59800004959,0.0,1.41693043709,1.67177212238,0.0,3.92387080193,2.257999897,0.0,4.18303060532,0.735310912132,0.0,4.1544713974,-0.730275094509,0.0,4.42529964447,-2.5474998951,0.0,3.32793807983,-3.94922232628,0.0,0.0689999982715,-5.1360001564,0.0,0.0,0.0,0.0,0.0,0.0,0.0,0.0,0.0,0.0,0.0,0.0,0.0,0.0,0.0,0.0,0.0,0.0,0.0,0.0,0.0,0.0,0.0,0.0,0.0
1452406637902384245,2523,1452406637901894716,sonar_frame,0.0689999982715,1.59800004959,0.0,1.41693043709,1.67177212238,0.0,3.92387080193,2.257999897,0.0,4.18303060532,0.735310912132,0.0,4.1544713974,-0.730275094509,0.0,4.4227013588,-2.54600000381,0.0,3.32793807983,-3.94922232628,0.0,0.0689999982715,-5.1360001564,0.0,0.0,0.0,0.0,0.0,0.0,0.0,0.0,0.0,0.0,0.0,0.0,0.0,0.0,0.0,0.0,0.0,0.0,0.0,0.0,0.0,0.0,0.0,0.0,0.0
1452406638001636444,2524,1452406638001183680,sonar_frame,0.0689999982715,1.59899997711,0.0,1.41693043709,1.67177212238,0.0,3.92387080193,2.257999897,0.0,4.18303060532,0.735310912132,0.0,4.1544713974,-0.730275094509,0.0,4.4227013588,-2.54600000381,0.0,3.32793807983,-3.94922232628,0.0,0.0689999982715,-5.1360001564,0.0,0.0,0.0,0.0,0.0,0.0,0.0,0.0,0.0,0.0,0.0,0.0,0.0,0.0,0.0,0.0,0.0,0.0,0.0,0.0,0.0,0.0,0.0,0.0,0.0
1452406638102688038,2525,1452406638102144094,sonar_frame,0.0689999982715,1.59899997711,0.0,1.41693043709,1.67177212238,0.0,3.92387080193,2.257999897,0.0,4.18007659912,0.734789967537,0.0,4.15348672867,-0.730101466179,0.0,4.4227013588,-2.54600000381,0.0,3.32793807983,-3.94922232628,0.0,0.0689999982715,-5.1360001564,0.0,0.0,0.0,0.0,0.0,0.0,0.0,0.0,0.0,0.0,0.0,0.0,0.0,0.0,0.0,0.0,0.0,0.0,0.0,0.0,0.0,0.0,0.0,0.0,0.0
1452406638201729685,2526,1452406638201300838,sonar_frame,0.0689999982715,1.59899997711,0.0,1.41693043709,1.67177212238,0.0,3.92387080193,2.257999897,0.0,4.18007659912,0.734789967537,0.0,4.15348672867,-0.730101466179,0.0,4.42529964447,-2.5474998951,0.0,3.32793807983,-3.94922232628,0.0,0.0689999982715,-5.1360001564,0.0,0.0,0.0,0.0,0.0,0.0,0.0,0.0,0.0,0.0,0.0,0.0,0.0,0.0,0.0,0.0,0.0,0.0,0.0,0.0,0.0,0.0,0.0,0.0,0.0
1452406638302639065,2527,1452406638302168659,sonar_frame,0.0689999982715,1.59800004959,0.0,1.41693043709,1.67177212238,0.0,3.92387080193,2.257999897,0.0,4.18007659912,0.734789967537,0.0,4.15348672867,-0.730101466179,0.0,4.42529964447,-2.5474998951,0.0,3.32793807983,-3.94922232628,0.0,0.0689999982715,-5.1360001564,0.0,0.0,0.0,0.0,0.0,0.0,0.0,0.0,0.0,0.0,0.0,0.0,0.0,0.0,0.0,0.0,0.0,0.0,0.0,0.0,0.0,0.0,0.0,0.0,0.0
1452406638401899534,2528,1452406638401426569,sonar_frame,0.0689999982715,1.59800004959,0.0,1.41693043709,1.67177212238,0.0,3.9247367382,2.25850009918,0.0,4.18303060532,0.735310912132,0.0,4.15348672867,-0.730101466179,0.0,4.42529964447,-2.5474998951,0.0,3.32793807983,-3.94922232628,0.0,0.0689999982715,-5.1360001564,0.0,0.0,0.0,0.0,0.0,0.0,0.0,0.0,0.0,0.0,0.0,0.0,0.0,0.0,0.0,0.0,0.0,0.0,0.0,0.0,0.0,0.0,0.0,0.0,0.0
1452406638502641916,2529,1452406638502162872,sonar_frame,0.0689999982715,1.59800004959,0.0,1.41693043709,1.67177212238,0.0,3.9247367382,2.25850009918,0.0,4.18303060532,0.735310912132,0.0,4.15348672867,-0.730101466179,0.0,4.42529964447,-2.5474998951,0.0,3.32793807983,-3.94922232628,0.0,0.0689999982715,-5.1360001564,0.0,0.0,0.0,0.0,0.0,0.0,0.0,0.0,0.0,0.0,0.0,0.0,0.0,0.0,0.0,0.0,0.0,0.0,0.0,0.0,0.0,0.0,0.0,0.0,0.0
1452406638601897624,2530,1452406638601430771,sonar_frame,0.0689999982715,1.59899997711,0.0,1.41693043709,1.67177212238,0.0,3.9247367382,2.25850009918,0.0,4.18303060532,0.735310912132,0.0,4.15348672867,-0.730101466179,0.0,4.42529964447,-2.5474998951,0.0,3.32793807983,-3.94922232628,0.0,0.0689999982715,-5.1360001564,0.0,0.0,0.0,0.0,0.0,0.0,0.0,0.0,0.0,0.0,0.0,0.0,0.0,0.0,0.0,0.0,0.0,0.0,0.0,0.0,0.0,0.0,0.0,0.0,0.0
1452406638702801679,2531,1452406638702320253,sonar_frame,0.0689999982715,1.59899997711,0.0,1.41693043709,1.67177212238,0.0,3.92213869095,2.25699996948,0.0,4.18303060532,0.735310912132,0.0,4.15348672867,-0.730101466179,0.0,4.42529964447,-2.5474998951,0.0,3.32793807983,-3.94922232628,0.0,0.0689999982715,-5.1360001564,0.0,0.0,0.0,0.0,0.0,0.0,0.0,0.0,0.0,0.0,0.0,0.0,0.0,0.0,0.0,0.0,0.0,0.0,0.0,0.0,0.0,0.0,0.0,0.0,0.0
1452406638802027679,2532,1452406638801518352,sonar_frame,0.0689999982715,1.59899997711,0.0,1.41693043709,1.67177212238,0.0,3.92213869095,2.25699996948,0.0,4.18303060532,0.735310912132,0.0,4.15348672867,-0.730101466179,0.0,4.4227013588,-2.54600000381,0.0,3.32793807983,-3.94922232628,0.0,0.0689999982715,-5.1360001564,0.0,0.0,0.0,0.0,0.0,0.0,0.0,0.0,0.0,0.0,0.0,0.0,0.0,0.0,0.0,0.0,0.0,0.0,0.0,0.0,0.0,0.0,0.0,0.0,0.0
1452406638902963194,2533,1452406638902445859,sonar_frame,0.0689999982715,1.59899997711,0.0,1.41693043709,1.67177212238,0.0,3.92213869095,2.25699996948,0.0,4.18303060532,0.735310912132,0.0,4.15348672867,-0.730101466179,0.0,4.4227013588,-2.54600000381,0.0,3.32793807983,-3.94922232628,0.0,0.0689999982715,-5.1360001564,0.0,0.0,0.0,0.0,0.0,0.0,0.0,0.0,0.0,0.0,0.0,0.0,0.0,0.0,0.0,0.0,0.0,0.0,0.0,0.0,0.0,0.0,0.0,0.0,0.0
1452406639002168130,2534,1452406639001680339,sonar_frame,0.0689999982715,1.59899997711,0.0,1.41693043709,1.67177212238,0.0,3.9247367382,2.25850009918,0.0,4.18303060532,0.735310912132,0.0,4.15348672867,-0.730101466179,0.0,4.4227013588,-2.54600000381,0.0,3.32793807983,-3.94922232628,0.0,0.0689999982715,-5.1360001564,0.0,0.0,0.0,0.0,0.0,0.0,0.0,0.0,0.0,0.0,0.0,0.0,0.0,0.0,0.0,0.0,0.0,0.0,0.0,0.0,0.0,0.0,0.0,0.0,0.0
1452406639102977594,2535,1452406639102423045,sonar_frame,0.0689999982715,1.59899997711,0.0,1.41693043709,1.67177212238,0.0,3.9247367382,2.25850009918,0.0,4.18992471695,0.736526429653,0.0,4.15348672867,-0.730101466179,0.0,4.4227013588,-2.54600000381,0.0,3.32793807983,-3.94922232628,0.0,0.0689999982715,-5.1360001564,0.0,0.0,0.0,0.0,0.0,0.0,0.0,0.0,0.0,0.0,0.0,0.0,0.0,0.0,0.0,0.0,0.0,0.0,0.0,0.0,0.0,0.0,0.0,0.0,0.0
1452406639202106605,2536,1452406639201680736,sonar_frame,0.0689999982715,1.59899997711,0.0,1.41693043709,1.67177212238,0.0,3.9247367382,2.25850009918,0.0,4.18992471695,0.736526429653,0.0,4.15348672867,-0.730101466179,0.0,4.4227013588,-2.54600000381,0.0,3.32793807983,-3.94922232628,0.0,0.0689999982715,-5.1360001564,0.0,0.0,0.0,0.0,0.0,0.0,0.0,0.0,0.0,0.0,0.0,0.0,0.0,0.0,0.0,0.0,0.0,0.0,0.0,0.0,0.0,0.0,0.0,0.0,0.0
1452406639303045731,2537,1452406639302574045,sonar_frame,0.0689999982715,1.59800004959,0.0,1.41693043709,1.67177212238,0.0,3.92213869095,2.25699996948,0.0,4.18992471695,0.736526429653,0.0,4.15348672867,-0.730101466179,0.0,4.4227013588,-2.54600000381,0.0,3.32793807983,-3.94922232628,0.0,0.0689999982715,-5.1360001564,0.0,0.0,0.0,0.0,0.0,0.0,0.0,0.0,0.0,0.0,0.0,0.0,0.0,0.0,0.0,0.0,0.0,0.0,0.0,0.0,0.0,0.0,0.0,0.0,0.0
1452406639402247066,2538,1452406639401806341,sonar_frame,0.0689999982715,1.59800004959,0.0,1.41693043709,1.67177212238,0.0,3.92213869095,2.25699996948,0.0,4.18303060532,0.735310912132,0.0,4.15348672867,-0.730101466179,0.0,4.4227013588,-2.54600000381,0.0,3.32793807983,-3.94922232628,0.0,0.0689999982715,-5.1360001564,0.0,0.0,0.0,0.0,0.0,0.0,0.0,0.0,0.0,0.0,0.0,0.0,0.0,0.0,0.0,0.0,0.0,0.0,0.0,0.0,0.0,0.0,0.0,0.0,0.0
1452406639503323174,2539,1452406639502721014,sonar_frame,0.0689999982715,1.59800004959,0.0,1.41693043709,1.67177212238,0.0,3.92213869095,2.25699996948,0.0,4.18303060532,0.735310912132,0.0,4.15348672867,-0.730101466179,0.0,4.4227013588,-2.54600000381,0.0,3.32793807983,-3.94922232628,0.0,0.0689999982715,-5.1360001564,0.0,0.0,0.0,0.0,0.0,0.0,0.0,0.0,0.0,0.0,0.0,0.0,0.0,0.0,0.0,0.0,0.0,0.0,0.0,0.0,0.0,0.0,0.0,0.0,0.0
1452406639602416642,2540,1452406639601932176,sonar_frame,0.0689999982715,1.59899997711,0.0,1.41693043709,1.67177212238,0.0,3.92213869095,2.25699996948,0.0,4.18303060532,0.735310912132,0.0,4.15348672867,-0.730101466179,0.0,4.4227013588,-2.54600000381,0.0,3.32793807983,-3.94922232628,0.0,0.0689999982715,-5.1360001564,0.0,0.0,0.0,0.0,0.0,0.0,0.0,0.0,0.0,0.0,0.0,0.0,0.0,0.0,0.0,0.0,0.0,0.0,0.0,0.0,0.0,0.0,0.0,0.0,0.0
1452406639703263201,2541,1452406639702673076,sonar_frame,0.0689999982715,1.59899997711,0.0,1.41693043709,1.67177212238,0.0,3.92213869095,2.25699996948,0.0,4.18007659912,0.734789967537,0.0,4.15348672867,-0.730101466179,0.0,4.4227013588,-2.54600000381,0.0,3.32793807983,-3.94922232628,0.0,0.0689999982715,-5.1360001564,0.0,0.0,0.0,0.0,0.0,0.0,0.0,0.0,0.0,0.0,0.0,0.0,0.0,0.0,0.0,0.0,0.0,0.0,0.0,0.0,0.0,0.0,0.0,0.0,0.0
1452406639802468097,2542,1452406639801940471,sonar_frame,0.0689999982715,1.59899997711,0.0,1.41693043709,1.67177212238,0.0,3.92213869095,2.25699996948,0.0,4.18007659912,0.734789967537,0.0,4.15348672867,-0.730101466179,0.0,4.42529964447,-2.5474998951,0.0,3.32793807983,-3.94922232628,0.0,0.0689999982715,-5.1360001564,0.0,0.0,0.0,0.0,0.0,0.0,0.0,0.0,0.0,0.0,0.0,0.0,0.0,0.0,0.0,0.0,0.0,0.0,0.0,0.0,0.0,0.0,0.0,0.0,0.0
1452406639903299019,2543,1452406639902767852,sonar_frame,0.0689999982715,1.59800004959,0.0,1.41693043709,1.67177212238,0.0,3.92213869095,2.25699996948,0.0,4.18007659912,0.734789967537,0.0,4.15348672867,-0.730101466179,0.0,4.42529964447,-2.5474998951,0.0,3.32793807983,-3.94922232628,0.0,0.0689999982715,-5.1360001564,0.0,0.0,0.0,0.0,0.0,0.0,0.0,0.0,0.0,0.0,0.0,0.0,0.0,0.0,0.0,0.0,0.0,0.0,0.0,0.0,0.0,0.0,0.0,0.0,0.0
1452406640002666029,2544,1452406640002085797,sonar_frame,0.0689999982715,1.59800004959,0.0,1.41693043709,1.67177212238,0.0,3.92213869095,2.25699996948,0.0,4.18697023392,0.736005485058,0.0,4.15348672867,-0.730101466179,0.0,4.42529964447,-2.5474998951,0.0,3.32793807983,-3.94922232628,0.0,0.0689999982715,-5.1360001564,0.0,0.0,0.0,0.0,0.0,0.0,0.0,0.0,0.0,0.0,0.0,0.0,0.0,0.0,0.0,0.0,0.0,0.0,0.0,0.0,0.0,0.0,0.0,0.0,0.0
1452406640103505778,2545,1452406640102891819,sonar_frame,0.0689999982715,1.59800004959,0.0,1.41693043709,1.67177212238,0.0,3.92213869095,2.25699996948,0.0,4.18697023392,0.736005485058,0.0,4.15348672867,-0.730101466179,0.0,4.4227013588,-2.54600000381,0.0,3.32793807983,-3.94922232628,0.0,0.0689999982715,-5.1360001564,0.0,0.0,0.0,0.0,0.0,0.0,0.0,0.0,0.0,0.0,0.0,0.0,0.0,0.0,0.0,0.0,0.0,0.0,0.0,0.0,0.0,0.0,0.0,0.0,0.0
1452406640202502407,2546,1452406640202041366,sonar_frame,0.0689999982715,1.59800004959,0.0,1.41693043709,1.67177212238,0.0,3.92213869095,2.25699996948,0.0,4.18697023392,0.736005485058,0.0,4.15348672867,-0.730101466179,0.0,4.4227013588,-2.54600000381,0.0,3.32793807983,-3.94922232628,0.0,0.0689999982715,-5.1360001564,0.0,0.0,0.0,0.0,0.0,0.0,0.0,0.0,0.0,0.0,0.0,0.0,0.0,0.0,0.0,0.0,0.0,0.0,0.0,0.0,0.0,0.0,0.0,0.0,0.0
1452406640303547053,2547,1452406640302963377,sonar_frame,0.0689999982715,1.59800004959,0.0,1.41693043709,1.67177212238,0.0,3.92127275467,2.25650000572,0.0,4.18697023392,0.736005485058,0.0,4.15348672867,-0.730101466179,0.0,4.4227013588,-2.54600000381,0.0,3.32793807983,-3.94922232628,0.0,0.0689999982715,-5.1360001564,0.0,0.0,0.0,0.0,0.0,0.0,0.0,0.0,0.0,0.0,0.0,0.0,0.0,0.0,0.0,0.0,0.0,0.0,0.0,0.0,0.0,0.0,0.0,0.0,0.0
1452406640402740050,2548,1452406640402181628,sonar_frame,0.0689999982715,1.59800004959,0.0,1.41693043709,1.67177212238,0.0,3.92127275467,2.25650000572,0.0,4.18697023392,0.736005485058,0.0,4.1544713974,-0.730275094509,0.0,4.4227013588,-2.54600000381,0.0,3.32793807983,-3.94922232628,0.0,0.0689999982715,-5.1360001564,0.0,0.0,0.0,0.0,0.0,0.0,0.0,0.0,0.0,0.0,0.0,0.0,0.0,0.0,0.0,0.0,0.0,0.0,0.0,0.0,0.0,0.0,0.0,0.0,0.0
1452406640503521234,2549,1452406640503043618,sonar_frame,0.0689999982715,1.59899997711,0.0,1.41693043709,1.67177212238,0.0,3.92127275467,2.25650000572,0.0,4.18697023392,0.736005485058,0.0,4.1544713974,-0.730275094509,0.0,4.4227013588,-2.54600000381,0.0,3.32793807983,-3.94922232628,0.0,0.0689999982715,-5.1360001564,0.0,0.0,0.0,0.0,0.0,0.0,0.0,0.0,0.0,0.0,0.0,0.0,0.0,0.0,0.0,0.0,0.0,0.0,0.0,0.0,0.0,0.0,0.0,0.0,0.0
1452406640602993294,2550,1452406640602314794,sonar_frame,0.0689999982715,1.59899997711,0.0,1.41693043709,1.67177212238,0.0,3.92387080193,2.257999897,0.0,4.18697023392,0.736005485058,0.0,4.1544713974,-0.730275094509,0.0,4.4227013588,-2.54600000381,0.0,3.32793807983,-3.94922232628,0.0,0.0689999982715,-5.1360001564,0.0,0.0,0.0,0.0,0.0,0.0,0.0,0.0,0.0,0.0,0.0,0.0,0.0,0.0,0.0,0.0,0.0,0.0,0.0,0.0,0.0,0.0,0.0,0.0,0.0
1452406640703709630,2551,1452406640703016390,sonar_frame,0.0689999982715,1.59899997711,0.0,1.41693043709,1.67177212238,0.0,3.92387080193,2.257999897,0.0,4.18007659912,0.734789967537,0.0,4.1544713974,-0.730275094509,0.0,4.4227013588,-2.54600000381,0.0,3.32793807983,-3.94922232628,0.0,0.0689999982715,-5.1360001564,0.0,0.0,0.0,0.0,0.0,0.0,0.0,0.0,0.0,0.0,0.0,0.0,0.0,0.0,0.0,0.0,0.0,0.0,0.0,0.0,0.0,0.0,0.0,0.0,0.0
1452406640804425727,2552,1452406640802313432,sonar_frame,0.0689999982715,1.59899997711,0.0,1.41693043709,1.67177212238,0.0,3.92387080193,2.257999897,0.0,4.18007659912,0.734789967537,0.0,4.1544713974,-0.730275094509,0.0,4.4227013588,-2.54600000381,0.0,3.32793807983,-3.94922232628,0.0,0.0689999982715,-5.1360001564,0.0,0.0,0.0,0.0,0.0,0.0,0.0,0.0,0.0,0.0,0.0,0.0,0.0,0.0,0.0,0.0,0.0,0.0,0.0,0.0,0.0,0.0,0.0,0.0,0.0
1452406640904471898,2553,1452406640903184251,sonar_frame,0.0689999982715,1.59899997711,0.0,1.41693043709,1.67177212238,0.0,3.9247367382,2.25850009918,0.0,4.18007659912,0.734789967537,0.0,4.1544713974,-0.730275094509,0.0,4.4227013588,-2.54600000381,0.0,3.32793807983,-3.94922232628,0.0,0.0689999982715,-5.1360001564,0.0,0.0,0.0,0.0,0.0,0.0,0.0,0.0,0.0,0.0,0.0,0.0,0.0,0.0,0.0,0.0,0.0,0.0,0.0,0.0,0.0,0.0,0.0,0.0,0.0
1452406641003027559,2554,1452406641002428907,sonar_frame,0.0689999982715,1.59899997711,0.0,1.41693043709,1.67177212238,0.0,3.9247367382,2.25850009918,0.0,4.17613697052,0.734095394611,0.0,4.1544713974,-0.730275094509,0.0,4.4227013588,-2.54600000381,0.0,3.32793807983,-3.94922232628,0.0,0.0689999982715,-5.1360001564,0.0,0.0,0.0,0.0,0.0,0.0,0.0,0.0,0.0,0.0,0.0,0.0,0.0,0.0,0.0,0.0,0.0,0.0,0.0,0.0,0.0,0.0,0.0,0.0,0.0
1452406641103855963,2555,1452406641103297313,sonar_frame,0.0689999982715,1.59899997711,0.0,1.41693043709,1.67177212238,0.0,3.9247367382,2.25850009918,0.0,4.17613697052,0.734095394611,0.0,4.1544713974,-0.730275094509,0.0,4.42529964447,-2.5474998951,0.0,3.32793807983,-3.94922232628,0.0,0.0689999982715,-5.1360001564,0.0,0.0,0.0,0.0,0.0,0.0,0.0,0.0,0.0,0.0,0.0,0.0,0.0,0.0,0.0,0.0,0.0,0.0,0.0,0.0,0.0,0.0,0.0,0.0,0.0
1452406641203106709,2556,1452406641202570613,sonar_frame,0.0689999982715,1.59899997711,0.0,1.41693043709,1.67177212238,0.0,3.9247367382,2.25850009918,0.0,4.17613697052,0.734095394611,0.0,4.1544713974,-0.730275094509,0.0,4.42529964447,-2.5474998951,0.0,3.32793807983,-3.94922232628,0.0,0.0689999982715,-5.1360001564,0.0,0.0,0.0,0.0,0.0,0.0,0.0,0.0,0.0,0.0,0.0,0.0,0.0,0.0,0.0,0.0,0.0,0.0,0.0,0.0,0.0,0.0,0.0,0.0,0.0
1452406641303929076,2557,1452406641303272481,sonar_frame,0.0689999982715,1.59899997711,0.0,1.41693043709,1.67177212238,0.0,3.9247367382,2.25850009918,0.0,4.17219781876,0.733400762081,0.0,4.1544713974,-0.730275094509,0.0,4.42529964447,-2.5474998951,0.0,3.32793807983,-3.94922232628,0.0,0.0689999982715,-5.1360001564,0.0,0.0,0.0,0.0,0.0,0.0,0.0,0.0,0.0,0.0,0.0,0.0,0.0,0.0,0.0,0.0,0.0,0.0,0.0,0.0,0.0,0.0,0.0,0.0,0.0
1452406641403032131,2558,1452406641402555353,sonar_frame,0.0689999982715,1.59899997711,0.0,1.41693043709,1.67177212238,0.0,3.9247367382,2.25850009918,0.0,4.17219781876,0.733400762081,0.0,4.1544713974,-0.730275094509,0.0,4.42529964447,-2.5474998951,0.0,3.32793807983,-3.94922232628,0.0,0.0689999982715,-5.1360001564,0.0,0.0,0.0,0.0,0.0,0.0,0.0,0.0,0.0,0.0,0.0,0.0,0.0,0.0,0.0,0.0,0.0,0.0,0.0,0.0,0.0,0.0,0.0,0.0,0.0
1452406641504258687,2559,1452406641503467325,sonar_frame,0.0689999982715,1.59899997711,0.0,1.41693043709,1.67177212238,0.0,3.9247367382,2.25850009918,0.0,4.17219781876,0.733400762081,0.0,4.1544713974,-0.730275094509,0.0,4.42529964447,-2.5474998951,0.0,3.32793807983,-3.94922232628,0.0,0.0689999982715,-5.1360001564,0.0,0.0,0.0,0.0,0.0,0.0,0.0,0.0,0.0,0.0,0.0,0.0,0.0,0.0,0.0,0.0,0.0,0.0,0.0,0.0,0.0,0.0,0.0,0.0,0.0
1452406641603168936,2560,1452406641602679874,sonar_frame,0.0689999982715,1.59899997711,0.0,1.41693043709,1.67177212238,0.0,3.9247367382,2.25850009918,0.0,4.17909145355,0.734616339207,0.0,4.1544713974,-0.730275094509,0.0,4.42529964447,-2.5474998951,0.0,3.32793807983,-3.94922232628,0.0,0.0689999982715,-5.1360001564,0.0,0.0,0.0,0.0,0.0,0.0,0.0,0.0,0.0,0.0,0.0,0.0,0.0,0.0,0.0,0.0,0.0,0.0,0.0,0.0,0.0,0.0,0.0,0.0,0.0
1452406641704040269,2561,1452406641703385537,sonar_frame,0.0689999982715,1.59899997711,0.0,1.41693043709,1.67177212238,0.0,3.9247367382,2.25850009918,0.0,4.17909145355,0.734616339207,0.0,4.1544713974,-0.730275094509,0.0,4.42443323135,-2.54699993134,0.0,3.32793807983,-3.94922232628,0.0,0.0689999982715,-5.1360001564,0.0,0.0,0.0,0.0,0.0,0.0,0.0,0.0,0.0,0.0,0.0,0.0,0.0,0.0,0.0,0.0,0.0,0.0,0.0,0.0,0.0,0.0,0.0,0.0,0.0
1452406641803387103,2562,1452406641802823737,sonar_frame,0.0689999982715,1.59899997711,0.0,1.41693043709,1.67177212238,0.0,3.9247367382,2.25850009918,0.0,4.17909145355,0.734616339207,0.0,4.1544713974,-0.730275094509,0.0,4.42443323135,-2.54699993134,0.0,3.32793807983,-3.94922232628,0.0,0.0689999982715,-5.1360001564,0.0,0.0,0.0,0.0,0.0,0.0,0.0,0.0,0.0,0.0,0.0,0.0,0.0,0.0,0.0,0.0,0.0,0.0,0.0,0.0,0.0,0.0,0.0,0.0,0.0
1452406641903961024,2563,1452406641903513820,sonar_frame,0.0689999982715,1.59899997711,0.0,1.41693043709,1.67177212238,0.0,3.9247367382,2.25850009918,0.0,4.18303060532,0.735310912132,0.0,4.1544713974,-0.730275094509,0.0,4.42443323135,-2.54699993134,0.0,3.32793807983,-3.94922232628,0.0,0.0689999982715,-5.1360001564,0.0,0.0,0.0,0.0,0.0,0.0,0.0,0.0,0.0,0.0,0.0,0.0,0.0,0.0,0.0,0.0,0.0,0.0,0.0,0.0,0.0,0.0,0.0,0.0,0.0
1452406642003455681,2564,1452406642002954474,sonar_frame,0.0689999982715,1.59899997711,0.0,1.41693043709,1.67177212238,0.0,3.9247367382,2.25850009918,0.0,4.18303060532,0.735310912132,0.0,4.1544713974,-0.730275094509,0.0,4.4227013588,-2.54600000381,0.0,3.32793807983,-3.94922232628,0.0,0.0689999982715,-5.1360001564,0.0,0.0,0.0,0.0,0.0,0.0,0.0,0.0,0.0,0.0,0.0,0.0,0.0,0.0,0.0,0.0,0.0,0.0,0.0,0.0,0.0,0.0,0.0,0.0,0.0
1452406642104178803,2565,1452406642103660636,sonar_frame,0.0689999982715,1.59899997711,0.0,1.41693043709,1.67177212238,0.0,3.9247367382,2.25850009918,0.0,4.18303060532,0.735310912132,0.0,4.1544713974,-0.730275094509,0.0,4.4227013588,-2.54600000381,0.0,3.32793807983,-3.94922232628,0.0,0.0689999982715,-5.1360001564,0.0,0.0,0.0,0.0,0.0,0.0,0.0,0.0,0.0,0.0,0.0,0.0,0.0,0.0,0.0,0.0,0.0,0.0,0.0,0.0,0.0,0.0,0.0,0.0,0.0
1452406642204363061,2566,1452406642202947635,sonar_frame,0.0689999982715,1.59899997711,0.0,1.41693043709,1.67177212238,0.0,3.9247367382,2.25850009918,0.0,4.18303060532,0.735310912132,0.0,4.1544713974,-0.730275094509,0.0,4.4227013588,-2.54600000381,0.0,3.32793807983,-3.94922232628,0.0,0.0689999982715,-5.1360001564,0.0,0.0,0.0,0.0,0.0,0.0,0.0,0.0,0.0,0.0,0.0,0.0,0.0,0.0,0.0,0.0,0.0,0.0,0.0,0.0,0.0,0.0,0.0,0.0,0.0
1452406642304254539,2567,1452406642303664660,sonar_frame,0.0689999982715,1.59899997711,0.0,1.41693043709,1.67177212238,0.0,3.9247367382,2.25850009918,0.0,4.18007659912,0.734789967537,0.0,4.1544713974,-0.730275094509,0.0,4.4227013588,-2.54600000381,0.0,3.32793807983,-3.94922232628,0.0,0.0689999982715,-5.1360001564,0.0,0.0,0.0,0.0,0.0,0.0,0.0,0.0,0.0,0.0,0.0,0.0,0.0,0.0,0.0,0.0,0.0,0.0,0.0,0.0,0.0,0.0,0.0,0.0,0.0
1452406642404403304,2568,1452406642403056669,sonar_frame,0.0689999982715,1.59899997711,0.0,1.41693043709,1.67177212238,0.0,3.9247367382,2.25850009918,0.0,4.18007659912,0.734789967537,0.0,4.1544713974,-0.730275094509,0.0,4.4227013588,-2.54600000381,0.0,3.32793807983,-3.94922232628,0.0,0.0689999982715,-5.1360001564,0.0,0.0,0.0,0.0,0.0,0.0,0.0,0.0,0.0,0.0,0.0,0.0,0.0,0.0,0.0,0.0,0.0,0.0,0.0,0.0,0.0,0.0,0.0,0.0,0.0
1452406642505473316,2569,1452406642503935471,sonar_frame,0.0689999982715,1.59899997711,0.0,1.41693043709,1.67177212238,0.0,3.9247367382,2.25850009918,0.0,4.18007659912,0.734789967537,0.0,4.1544713974,-0.730275094509,0.0,4.4227013588,-2.54600000381,0.0,3.32793807983,-3.94922232628,0.0,0.0689999982715,-5.1360001564,0.0,0.0,0.0,0.0,0.0,0.0,0.0,0.0,0.0,0.0,0.0,0.0,0.0,0.0,0.0,0.0,0.0,0.0,0.0,0.0,0.0,0.0,0.0,0.0,0.0
1452406642604337109,2570,1452406642603061228,sonar_frame,0.0689999982715,1.59899997711,0.0,1.41693043709,1.67177212238,0.0,3.9247367382,2.25850009918,0.0,4.17613697052,0.734095394611,0.0,4.1544713974,-0.730275094509,0.0,4.4227013588,-2.54600000381,0.0,3.32793807983,-3.94922232628,0.0,0.0689999982715,-5.1360001564,0.0,0.0,0.0,0.0,0.0,0.0,0.0,0.0,0.0,0.0,0.0,0.0,0.0,0.0,0.0,0.0,0.0,0.0,0.0,0.0,0.0,0.0,0.0,0.0,0.0
1452406642705806544,2571,1452406642703951601,sonar_frame,0.0689999982715,1.59899997711,0.0,1.41693043709,1.67177212238,0.0,3.9247367382,2.25850009918,0.0,4.17613697052,0.734095394611,0.0,4.1544713974,-0.730275094509,0.0,4.42529964447,-2.5474998951,0.0,3.32793807983,-3.94922232628,0.0,0.0689999982715,-5.1360001564,0.0,0.0,0.0,0.0,0.0,0.0,0.0,0.0,0.0,0.0,0.0,0.0,0.0,0.0,0.0,0.0,0.0,0.0,0.0,0.0,0.0,0.0,0.0,0.0,0.0
1452406642804036527,2572,1452406642803206728,sonar_frame,0.0689999982715,1.59899997711,0.0,1.41693043709,1.67177212238,0.0,3.9247367382,2.25850009918,0.0,4.17613697052,0.734095394611,0.0,4.1544713974,-0.730275094509,0.0,4.42529964447,-2.5474998951,0.0,3.32793807983,-3.94922232628,0.0,0.0689999982715,-5.1360001564,0.0,0.0,0.0,0.0,0.0,0.0,0.0,0.0,0.0,0.0,0.0,0.0,0.0,0.0,0.0,0.0,0.0,0.0,0.0,0.0,0.0,0.0,0.0,0.0,0.0
1452406642905360986,2573,1452406642903928157,sonar_frame,0.0689999982715,1.59899997711,0.0,1.41693043709,1.67177212238,0.0,3.92127275467,2.25650000572,0.0,4.18598508835,0.735831856728,0.0,4.1544713974,-0.730275094509,0.0,4.42529964447,-2.5474998951,0.0,3.32793807983,-3.94922232628,0.0,0.0689999982715,-5.1360001564,0.0,0.0,0.0,0.0,0.0,0.0,0.0,0.0,0.0,0.0,0.0,0.0,0.0,0.0,0.0,0.0,0.0,0.0,0.0,0.0,0.0,0.0,0.0,0.0,0.0
1452406643004416841,2574,1452406643003192053,sonar_frame,0.0689999982715,1.59899997711,0.0,1.41693043709,1.67177212238,0.0,3.92127275467,2.25650000572,0.0,4.18598508835,0.735831856728,0.0,4.1544713974,-0.730275094509,0.0,4.42529964447,-2.5474998951,0.0,3.32793807983,-3.94922232628,0.0,0.0689999982715,-5.1360001564,0.0,0.0,0.0,0.0,0.0,0.0,0.0,0.0,0.0,0.0,0.0,0.0,0.0,0.0,0.0,0.0,0.0,0.0,0.0,0.0,0.0,0.0,0.0,0.0,0.0
1452406643104584678,2575,1452406643104057625,sonar_frame,0.0689999982715,1.59899997711,0.0,1.41693043709,1.67177212238,0.0,3.92127275467,2.25650000572,0.0,4.18598508835,0.735831856728,0.0,4.1544713974,-0.730275094509,0.0,4.42529964447,-2.5474998951,0.0,3.32793807983,-3.94922232628,0.0,0.0689999982715,-5.1360001564,0.0,0.0,0.0,0.0,0.0,0.0,0.0,0.0,0.0,0.0,0.0,0.0,0.0,0.0,0.0,0.0,0.0,0.0,0.0,0.0,0.0,0.0,0.0,0.0,0.0
1452406643203730896,2576,1452406643203308733,sonar_frame,0.0689999982715,1.59899997711,0.0,1.41693043709,1.67177212238,0.0,3.92127275467,2.25650000572,0.0,4.18598508835,0.735831856728,0.0,4.1544713974,-0.730275094509,0.0,4.42529964447,-2.5474998951,0.0,3.32793807983,-3.94922232628,0.0,0.0689999982715,-5.1360001564,0.0,0.0,0.0,0.0,0.0,0.0,0.0,0.0,0.0,0.0,0.0,0.0,0.0,0.0,0.0,0.0,0.0,0.0,0.0,0.0,0.0,0.0,0.0,0.0,0.0
1452406643305720256,2577,1452406643304206396,sonar_frame,0.0689999982715,1.59899997711,0.0,1.41693043709,1.67177212238,0.0,3.92127275467,2.25650000572,0.0,4.18598508835,0.735831856728,0.0,4.1544713974,-0.730275094509,0.0,4.42529964447,-2.5474998951,0.0,3.32793807983,-3.94922232628,0.0,0.0689999982715,-5.1360001564,0.0,0.0,0.0,0.0,0.0,0.0,0.0,0.0,0.0,0.0,0.0,0.0,0.0,0.0,0.0,0.0,0.0,0.0,0.0,0.0,0.0,0.0,0.0,0.0,0.0
1452406643404700300,2578,1452406643403446979,sonar_frame,0.0689999982715,1.59899997711,0.0,1.41693043709,1.67177212238,0.0,3.92127275467,2.25650000572,0.0,4.18598508835,0.735831856728,0.0,4.1544713974,-0.730275094509,0.0,4.42529964447,-2.5474998951,0.0,3.32793807983,-3.94922232628,0.0,0.0689999982715,-5.1360001564,0.0,0.0,0.0,0.0,0.0,0.0,0.0,0.0,0.0,0.0,0.0,0.0,0.0,0.0,0.0,0.0,0.0,0.0,0.0,0.0,0.0,0.0,0.0,0.0,0.0
1452406643504715244,2579,1452406643504185366,sonar_frame,0.0689999982715,1.59899997711,0.0,1.41693043709,1.67177212238,0.0,3.92387080193,2.257999897,0.0,4.17613697052,0.734095394611,0.0,4.1544713974,-0.730275094509,0.0,4.42529964447,-2.5474998951,0.0,3.32793807983,-3.94922232628,0.0,0.0689999982715,-5.1360001564,0.0,0.0,0.0,0.0,0.0,0.0,0.0,0.0,0.0,0.0,0.0,0.0,0.0,0.0,0.0,0.0,0.0,0.0,0.0,0.0,0.0,0.0,0.0,0.0,0.0
1452406643604781870,2580,1452406643603432259,sonar_frame,0.0689999982715,1.59899997711,0.0,1.41693043709,1.67177212238,0.0,3.92387080193,2.257999897,0.0,4.17613697052,0.734095394611,0.0,4.15348672867,-0.730101466179,0.0,4.4227013588,-2.54600000381,0.0,3.32793807983,-3.94922232628,0.0,0.0689999982715,-5.1360001564,0.0,0.0,0.0,0.0,0.0,0.0,0.0,0.0,0.0,0.0,0.0,0.0,0.0,0.0,0.0,0.0,0.0,0.0,0.0,0.0,0.0,0.0,0.0,0.0,0.0
1452406643704858857,2581,1452406643704307750,sonar_frame,0.0689999982715,1.59899997711,0.0,1.41693043709,1.67177212238,0.0,3.92387080193,2.257999897,0.0,4.17613697052,0.734095394611,0.0,4.15348672867,-0.730101466179,0.0,4.4227013588,-2.54600000381,0.0,3.32793807983,-3.94922232628,0.0,0.0689999982715,-5.1360001564,0.0,0.0,0.0,0.0,0.0,0.0,0.0,0.0,0.0,0.0,0.0,0.0,0.0,0.0,0.0,0.0,0.0,0.0,0.0,0.0,0.0,0.0,0.0,0.0,0.0
1452406643805226848,2582,1452406643803569815,sonar_frame,0.0689999982715,1.59899997711,0.0,1.41693043709,1.67177212238,0.0,3.92387080193,2.257999897,0.0,4.17613697052,0.734095394611,0.0,4.15348672867,-0.730101466179,0.0,4.4227013588,-2.54600000381,0.0,3.32793807983,-3.94922232628,0.0,0.0689999982715,-5.1360001564,0.0,0.0,0.0,0.0,0.0,0.0,0.0,0.0,0.0,0.0,0.0,0.0,0.0,0.0,0.0,0.0,0.0,0.0,0.0,0.0,0.0,0.0,0.0,0.0,0.0
1452406643906366885,2583,1452406643904411858,sonar_frame,0.0689999982715,1.59899997711,0.0,1.41693043709,1.67177212238,0.0,3.92387080193,2.257999897,0.0,4.17219781876,0.733400762081,0.0,4.15348672867,-0.730101466179,0.0,4.42529964447,-2.5474998951,0.0,3.32793807983,-3.94922232628,0.0,0.0689999982715,-5.1360001564,0.0,0.0,0.0,0.0,0.0,0.0,0.0,0.0,0.0,0.0,0.0,0.0,0.0,0.0,0.0,0.0,0.0,0.0,0.0,0.0,0.0,0.0,0.0,0.0,0.0
1452406644004151715,2584,1452406644003698229,sonar_frame,0.0689999982715,1.59899997711,0.0,1.41693043709,1.67177212238,0.0,3.92387080193,2.257999897,0.0,4.17219781876,0.733400762081,0.0,4.15348672867,-0.730101466179,0.0,4.42529964447,-2.5474998951,0.0,3.32793807983,-3.94922232628,0.0,0.0689999982715,-5.1360001564,0.0,0.0,0.0,0.0,0.0,0.0,0.0,0.0,0.0,0.0,0.0,0.0,0.0,0.0,0.0,0.0,0.0,0.0,0.0,0.0,0.0,0.0,0.0,0.0,0.0
