header: 
  seq: 169
  stamp: 
    secs: 1450835101
    nsecs: 271859644
  frame_id: sonar_frame
points: 
  - 
    x: 0.0689999982715
    y: 4.34000015259
    z: 0.0
  - 
    x: 2.11114120483
    y: 2.49909996986
    z: 0.0
  - 
    x: 4.47812700272
    y: 2.57800006866
    z: 0.0
  - 
    x: 2.99732232094
    y: 0.526238501072
    z: 0.0
  - 
    x: 3.03080582619
    y: -0.532142519951
    z: 0.0
  - 
    x: 3.6354842186
    y: -2.09150004387
    z: 0.0
  - 
    x: 3.32793807983
    y: -3.94922232628
    z: 0.0
  - 
    x: 0.0689999982715
    y: -5.1360001564
    z: 0.0
  - 
    x: -0.157000005245
    y: -5.1360001564
    z: 0.0
  - 
    x: -2.42254567146
    y: -2.76415157318
    z: 0.0
  - 
    x: -3.8535220623
    y: -2.16599988937
    z: 0.0
  - 
    x: -5.17903900146
    y: -0.895240902901
    z: 0.0
  - 
    x: -5.17903900146
    y: 0.895240902901
    z: 0.0
  - 
    x: -3.72015428543
    y: 2.08899998665
    z: 0.0
  - 
    x: -2.84678554535
    y: 3.26974081993
    z: 0.0
  - 
    x: -0.157000005245
    y: 4.25500011444
    z: 0.0
channels: []
---
header: 
  seq: 170
  stamp: 
    secs: 1450835101
    nsecs: 372524274
  frame_id: sonar_frame
points: 
  - 
    x: 0.0689999982715
    y: 4.34000015259
    z: 0.0
  - 
    x: 2.11114120483
    y: 2.49909996986
    z: 0.0
  - 
    x: 4.47812700272
    y: 2.57800006866
    z: 0.0
  - 
    x: 2.99732232094
    y: 0.526238501072
    z: 0.0
  - 
    x: 3.03080582619
    y: -0.532142519951
    z: 0.0
  - 
    x: 3.6354842186
    y: -2.09150004387
    z: 0.0
  - 
    x: 3.32793807983
    y: -3.94922232628
    z: 0.0
  - 
    x: 0.0689999982715
    y: -5.1360001564
    z: 0.0
  - 
    x: -0.157000005245
    y: -5.1360001564
    z: 0.0
  - 
    x: -2.42254567146
    y: -2.76415157318
    z: 0.0
  - 
    x: -3.8535220623
    y: -2.16599988937
    z: 0.0
  - 
    x: -5.17903900146
    y: -0.895240902901
    z: 0.0
  - 
    x: -5.17903900146
    y: 0.895240902901
    z: 0.0
  - 
    x: -3.72015428543
    y: 2.08899998665
    z: 0.0
  - 
    x: -2.84678554535
    y: 3.26974081993
    z: 0.0
  - 
    x: -0.157000005245
    y: 4.25500011444
    z: 0.0
channels: []
---
header: 
  seq: 171
  stamp: 
    secs: 1450835101
    nsecs: 472234002
  frame_id: sonar_frame
points: 
  - 
    x: 0.0689999982715
    y: 4.34000015259
    z: 0.0
  - 
    x: 2.11114120483
    y: 2.49909996986
    z: 0.0
  - 
    x: 4.47812700272
    y: 2.57800006866
    z: 0.0
  - 
    x: 2.99732232094
    y: 0.526238501072
    z: 0.0
  - 
    x: 3.03080582619
    y: -0.532142519951
    z: 0.0
  - 
    x: 3.6354842186
    y: -2.09150004387
    z: 0.0
  - 
    x: 3.32793807983
    y: -3.94922232628
    z: 0.0
  - 
    x: 0.0689999982715
    y: -5.1360001564
    z: 0.0
  - 
    x: -0.157000005245
    y: -5.1360001564
    z: 0.0
  - 
    x: -2.42254567146
    y: -2.76415157318
    z: 0.0
  - 
    x: -3.8535220623
    y: -2.16599988937
    z: 0.0
  - 
    x: -5.17903900146
    y: -0.895240902901
    z: 0.0
  - 
    x: -5.17903900146
    y: 0.895240902901
    z: 0.0
  - 
    x: -3.72015428543
    y: 2.08899998665
    z: 0.0
  - 
    x: -2.84678554535
    y: 3.26974081993
    z: 0.0
  - 
    x: -0.157000005245
    y: 4.25600004196
    z: 0.0
channels: []
---
header: 
  seq: 172
  stamp: 
    secs: 1450835101
    nsecs: 571950992
  frame_id: sonar_frame
points: 
  - 
    x: 0.0689999982715
    y: 4.34000015259
    z: 0.0
  - 
    x: 2.11114120483
    y: 2.49909996986
    z: 0.0
  - 
    x: 4.47812700272
    y: 2.57800006866
    z: 0.0
  - 
    x: 2.99732232094
    y: 0.526238501072
    z: 0.0
  - 
    x: 3.03080582619
    y: -0.532142519951
    z: 0.0
  - 
    x: 3.6354842186
    y: -2.09150004387
    z: 0.0
  - 
    x: 3.32793807983
    y: -3.94922232628
    z: 0.0
  - 
    x: 0.0689999982715
    y: -5.1360001564
    z: 0.0
  - 
    x: -0.157000005245
    y: -5.1360001564
    z: 0.0
  - 
    x: -2.42254567146
    y: -2.76415157318
    z: 0.0
  - 
    x: -3.8535220623
    y: -2.16599988937
    z: 0.0
  - 
    x: -5.17903900146
    y: -0.895240902901
    z: 0.0
  - 
    x: -5.17903900146
    y: 0.895240902901
    z: 0.0
  - 
    x: -3.72015428543
    y: 2.08899998665
    z: 0.0
  - 
    x: -2.84678554535
    y: 3.26974081993
    z: 0.0
  - 
    x: -0.157000005245
    y: 4.25500011444
    z: 0.0
channels: []
---
header: 
  seq: 173
  stamp: 
    secs: 1450835101
    nsecs: 672536557
  frame_id: sonar_frame
points: 
  - 
    x: 0.0689999982715
    y: 4.34000015259
    z: 0.0
  - 
    x: 2.11114120483
    y: 2.49909996986
    z: 0.0
  - 
    x: 4.47812700272
    y: 2.57800006866
    z: 0.0
  - 
    x: 2.99732232094
    y: 0.526238501072
    z: 0.0
  - 
    x: 3.03080582619
    y: -0.532142519951
    z: 0.0
  - 
    x: 3.6354842186
    y: -2.09150004387
    z: 0.0
  - 
    x: 3.32793807983
    y: -3.94922232628
    z: 0.0
  - 
    x: 0.0689999982715
    y: -5.1360001564
    z: 0.0
  - 
    x: -0.157000005245
    y: -5.1360001564
    z: 0.0
  - 
    x: -2.42254567146
    y: -2.76415157318
    z: 0.0
  - 
    x: -3.8535220623
    y: -2.16599988937
    z: 0.0
  - 
    x: -5.17903900146
    y: -0.895240902901
    z: 0.0
  - 
    x: -5.17903900146
    y: 0.895240902901
    z: 0.0
  - 
    x: -3.72015428543
    y: 2.08899998665
    z: 0.0
  - 
    x: -2.84678554535
    y: 3.26974081993
    z: 0.0
  - 
    x: -0.157000005245
    y: 4.25500011444
    z: 0.0
channels: []
---
header: 
  seq: 174
  stamp: 
    secs: 1450835101
    nsecs: 773220353
  frame_id: sonar_frame
points: 
  - 
    x: 0.0689999982715
    y: 4.34000015259
    z: 0.0
  - 
    x: 2.11114120483
    y: 2.49909996986
    z: 0.0
  - 
    x: 4.47812700272
    y: 2.57800006866
    z: 0.0
  - 
    x: 2.99732232094
    y: 0.526238501072
    z: 0.0
  - 
    x: 3.02982091904
    y: -0.531968891621
    z: 0.0
  - 
    x: 3.6354842186
    y: -2.09150004387
    z: 0.0
  - 
    x: 3.32793807983
    y: -3.94922232628
    z: 0.0
  - 
    x: 0.0689999982715
    y: -5.1360001564
    z: 0.0
  - 
    x: -0.157000005245
    y: -5.1360001564
    z: 0.0
  - 
    x: -2.42254567146
    y: -2.76415157318
    z: 0.0
  - 
    x: -3.8535220623
    y: -2.16599988937
    z: 0.0
  - 
    x: -5.17903900146
    y: -0.895240902901
    z: 0.0
  - 
    x: -5.17903900146
    y: 0.895240902901
    z: 0.0
  - 
    x: -3.72015428543
    y: 2.08899998665
    z: 0.0
  - 
    x: -2.84678554535
    y: 3.26974081993
    z: 0.0
  - 
    x: -0.157000005245
    y: 4.25500011444
    z: 0.0
channels: []
---
header: 
  seq: 175
  stamp: 
    secs: 1450835101
    nsecs: 872838524
  frame_id: sonar_frame
points: 
  - 
    x: 0.0689999982715
    y: 4.34000015259
    z: 0.0
  - 
    x: 2.11114120483
    y: 2.49909996986
    z: 0.0
  - 
    x: 4.47812700272
    y: 2.57800006866
    z: 0.0
  - 
    x: 2.99732232094
    y: 0.526238501072
    z: 0.0
  - 
    x: 3.03080582619
    y: -0.532142519951
    z: 0.0
  - 
    x: 3.6354842186
    y: -2.09150004387
    z: 0.0
  - 
    x: 3.32793807983
    y: -3.94922232628
    z: 0.0
  - 
    x: 0.0689999982715
    y: -5.1360001564
    z: 0.0
  - 
    x: -0.157000005245
    y: -5.1360001564
    z: 0.0
  - 
    x: -2.42254567146
    y: -2.76415157318
    z: 0.0
  - 
    x: -3.8535220623
    y: -2.16599988937
    z: 0.0
  - 
    x: -5.17903900146
    y: -0.895240902901
    z: 0.0
  - 
    x: -5.17903900146
    y: 0.895240902901
    z: 0.0
  - 
    x: -3.72015428543
    y: 2.08899998665
    z: 0.0
  - 
    x: -2.84742832184
    y: 3.27050685883
    z: 0.0
  - 
    x: -0.157000005245
    y: 4.25500011444
    z: 0.0
channels: []
---
header: 
  seq: 176
  stamp: 
    secs: 1450835101
    nsecs: 973494899
  frame_id: sonar_frame
points: 
  - 
    x: 0.0689999982715
    y: 4.34000015259
    z: 0.0
  - 
    x: 2.11114120483
    y: 2.49909996986
    z: 0.0
  - 
    x: 4.47812700272
    y: 2.57800006866
    z: 0.0
  - 
    x: 2.99732232094
    y: 0.526238501072
    z: 0.0
  - 
    x: 3.03080582619
    y: -0.532142519951
    z: 0.0
  - 
    x: 3.6354842186
    y: -2.09150004387
    z: 0.0
  - 
    x: 3.32793807983
    y: -3.94922232628
    z: 0.0
  - 
    x: 0.0689999982715
    y: -5.1360001564
    z: 0.0
  - 
    x: -0.157000005245
    y: -5.1360001564
    z: 0.0
  - 
    x: -2.42254567146
    y: -2.76415157318
    z: 0.0
  - 
    x: -3.8535220623
    y: -2.16599988937
    z: 0.0
  - 
    x: -5.17903900146
    y: -0.895240902901
    z: 0.0
  - 
    x: -5.17903900146
    y: 0.895240902901
    z: 0.0
  - 
    x: -3.72015428543
    y: 2.08899998665
    z: 0.0
  - 
    x: -2.84678554535
    y: 3.26974081993
    z: 0.0
  - 
    x: -0.157000005245
    y: 4.25500011444
    z: 0.0
channels: []
---
header: 
  seq: 177
  stamp: 
    secs: 1450835102
    nsecs: 73512875
  frame_id: sonar_frame
points: 
  - 
    x: 0.0689999982715
    y: 4.34000015259
    z: 0.0
  - 
    x: 2.11114120483
    y: 2.49909996986
    z: 0.0
  - 
    x: 4.47812700272
    y: 2.57800006866
    z: 0.0
  - 
    x: 2.99732232094
    y: 0.526238501072
    z: 0.0
  - 
    x: 3.03080582619
    y: -0.532142519951
    z: 0.0
  - 
    x: 3.6354842186
    y: -2.09150004387
    z: 0.0
  - 
    x: 3.32793807983
    y: -3.94922232628
    z: 0.0
  - 
    x: 0.0689999982715
    y: -5.1360001564
    z: 0.0
  - 
    x: -0.157000005245
    y: -5.1360001564
    z: 0.0
  - 
    x: -2.42254567146
    y: -2.76415157318
    z: 0.0
  - 
    x: -3.8535220623
    y: -2.16599988937
    z: 0.0
  - 
    x: -5.17903900146
    y: -0.895240902901
    z: 0.0
  - 
    x: -5.17903900146
    y: 0.895240902901
    z: 0.0
  - 
    x: -3.72015428543
    y: 2.08899998665
    z: 0.0
  - 
    x: -2.84678554535
    y: 3.26974081993
    z: 0.0
  - 
    x: -0.157000005245
    y: 4.25500011444
    z: 0.0
channels: []
---
header: 
  seq: 178
  stamp: 
    secs: 1450835102
    nsecs: 173333927
  frame_id: sonar_frame
points: 
  - 
    x: 0.0689999982715
    y: 4.34000015259
    z: 0.0
  - 
    x: 2.11114120483
    y: 2.49909996986
    z: 0.0
  - 
    x: 4.47812700272
    y: 2.57800006866
    z: 0.0
  - 
    x: 2.99732232094
    y: 0.526238501072
    z: 0.0
  - 
    x: 3.03080582619
    y: -0.532142519951
    z: 0.0
  - 
    x: 3.6354842186
    y: -2.09150004387
    z: 0.0
  - 
    x: 3.32793807983
    y: -3.94922232628
    z: 0.0
  - 
    x: 0.0689999982715
    y: -5.1360001564
    z: 0.0
  - 
    x: -0.157000005245
    y: -5.1360001564
    z: 0.0
  - 
    x: -2.42254567146
    y: -2.76415157318
    z: 0.0
  - 
    x: -3.8535220623
    y: -2.16599988937
    z: 0.0
  - 
    x: -5.17903900146
    y: -0.895240902901
    z: 0.0
  - 
    x: -5.17903900146
    y: 0.895240902901
    z: 0.0
  - 
    x: -3.72015428543
    y: 2.08899998665
    z: 0.0
  - 
    x: -2.84678554535
    y: 3.26974081993
    z: 0.0
  - 
    x: -0.157000005245
    y: 4.25500011444
    z: 0.0
channels: []
---
header: 
  seq: 179
  stamp: 
    secs: 1450835102
    nsecs: 273013612
  frame_id: sonar_frame
points: 
  - 
    x: 0.0689999982715
    y: 4.34000015259
    z: 0.0
  - 
    x: 2.11114120483
    y: 2.49909996986
    z: 0.0
  - 
    x: 4.47812700272
    y: 2.57800006866
    z: 0.0
  - 
    x: 2.99732232094
    y: 0.526238501072
    z: 0.0
  - 
    x: 3.03080582619
    y: -0.532142519951
    z: 0.0
  - 
    x: 3.6354842186
    y: -2.09150004387
    z: 0.0
  - 
    x: 3.32793807983
    y: -3.94922232628
    z: 0.0
  - 
    x: 0.0689999982715
    y: -5.1360001564
    z: 0.0
  - 
    x: -0.157000005245
    y: -5.1360001564
    z: 0.0
  - 
    x: -2.42254567146
    y: -2.76415157318
    z: 0.0
  - 
    x: -3.8535220623
    y: -2.16599988937
    z: 0.0
  - 
    x: -5.17903900146
    y: -0.895240902901
    z: 0.0
  - 
    x: -5.17903900146
    y: 0.895240902901
    z: 0.0
  - 
    x: -3.72015428543
    y: 2.08899998665
    z: 0.0
  - 
    x: -2.84678554535
    y: 3.26974081993
    z: 0.0
  - 
    x: -0.157000005245
    y: 4.25600004196
    z: 0.0
channels: []
---
header: 
  seq: 180
  stamp: 
    secs: 1450835102
    nsecs: 373644268
  frame_id: sonar_frame
points: 
  - 
    x: 0.0689999982715
    y: 4.34000015259
    z: 0.0
  - 
    x: 2.11114120483
    y: 2.49909996986
    z: 0.0
  - 
    x: 4.47812700272
    y: 2.57800006866
    z: 0.0
  - 
    x: 2.99732232094
    y: 0.526238501072
    z: 0.0
  - 
    x: 3.03080582619
    y: -0.532142519951
    z: 0.0
  - 
    x: 3.6354842186
    y: -2.09150004387
    z: 0.0
  - 
    x: 3.32793807983
    y: -3.94922232628
    z: 0.0
  - 
    x: 0.0689999982715
    y: -5.1360001564
    z: 0.0
  - 
    x: -0.157000005245
    y: -5.1360001564
    z: 0.0
  - 
    x: -2.42254567146
    y: -2.76415157318
    z: 0.0
  - 
    x: -3.8535220623
    y: -2.16599988937
    z: 0.0
  - 
    x: -5.17903900146
    y: -0.895240902901
    z: 0.0
  - 
    x: -5.17903900146
    y: 0.895240902901
    z: 0.0
  - 
    x: -3.72015428543
    y: 2.08899998665
    z: 0.0
  - 
    x: -2.84678554535
    y: 3.26974081993
    z: 0.0
  - 
    x: -0.157000005245
    y: 4.25500011444
    z: 0.0
channels: []
---
header: 
  seq: 181
  stamp: 
    secs: 1450835102
    nsecs: 474250546
  frame_id: sonar_frame
points: 
  - 
    x: 0.0689999982715
    y: 4.34000015259
    z: 0.0
  - 
    x: 2.11114120483
    y: 2.49909996986
    z: 0.0
  - 
    x: 4.47812700272
    y: 2.57800006866
    z: 0.0
  - 
    x: 2.99732232094
    y: 0.526238501072
    z: 0.0
  - 
    x: 3.03080582619
    y: -0.532142519951
    z: 0.0
  - 
    x: 3.6354842186
    y: -2.09150004387
    z: 0.0
  - 
    x: 3.32793807983
    y: -3.94922232628
    z: 0.0
  - 
    x: 0.0689999982715
    y: -5.1360001564
    z: 0.0
  - 
    x: -0.157000005245
    y: -5.1360001564
    z: 0.0
  - 
    x: -2.42254567146
    y: -2.76415157318
    z: 0.0
  - 
    x: -3.8535220623
    y: -2.16599988937
    z: 0.0
  - 
    x: -5.17903900146
    y: -0.895240902901
    z: 0.0
  - 
    x: -5.17903900146
    y: 0.895240902901
    z: 0.0
  - 
    x: -3.72015428543
    y: 2.08899998665
    z: 0.0
  - 
    x: -2.84678554535
    y: 3.26974081993
    z: 0.0
  - 
    x: -0.157000005245
    y: 4.25500011444
    z: 0.0
channels: []
---
header: 
  seq: 182
  stamp: 
    secs: 1450835102
    nsecs: 573931324
  frame_id: sonar_frame
points: 
  - 
    x: 0.0689999982715
    y: 4.34000015259
    z: 0.0
  - 
    x: 2.11114120483
    y: 2.49909996986
    z: 0.0
  - 
    x: 4.47812700272
    y: 2.57800006866
    z: 0.0
  - 
    x: 2.99732232094
    y: 0.526238501072
    z: 0.0
  - 
    x: 3.03080582619
    y: -0.532142519951
    z: 0.0
  - 
    x: 3.6354842186
    y: -2.09150004387
    z: 0.0
  - 
    x: 3.32793807983
    y: -3.94922232628
    z: 0.0
  - 
    x: 0.0689999982715
    y: -5.1360001564
    z: 0.0
  - 
    x: -0.157000005245
    y: -5.1360001564
    z: 0.0
  - 
    x: -2.42254567146
    y: -2.76415157318
    z: 0.0
  - 
    x: -3.8535220623
    y: -2.16599988937
    z: 0.0
  - 
    x: -5.17903900146
    y: -0.895240902901
    z: 0.0
  - 
    x: -5.17903900146
    y: 0.895240902901
    z: 0.0
  - 
    x: -3.72015428543
    y: 2.08899998665
    z: 0.0
  - 
    x: -2.84678554535
    y: 3.26974081993
    z: 0.0
  - 
    x: -0.157000005245
    y: 4.25500011444
    z: 0.0
channels: []
---
header: 
  seq: 183
  stamp: 
    secs: 1450835102
    nsecs: 674541789
  frame_id: sonar_frame
points: 
  - 
    x: 0.0689999982715
    y: 4.34000015259
    z: 0.0
  - 
    x: 2.11114120483
    y: 2.49909996986
    z: 0.0
  - 
    x: 4.47812700272
    y: 2.57800006866
    z: 0.0
  - 
    x: 2.99732232094
    y: 0.526238501072
    z: 0.0
  - 
    x: 3.03080582619
    y: -0.532142519951
    z: 0.0
  - 
    x: 3.6354842186
    y: -2.09150004387
    z: 0.0
  - 
    x: 3.32793807983
    y: -3.94922232628
    z: 0.0
  - 
    x: 0.0689999982715
    y: -5.1360001564
    z: 0.0
  - 
    x: -0.157000005245
    y: -5.1360001564
    z: 0.0
  - 
    x: -2.42254567146
    y: -2.76415157318
    z: 0.0
  - 
    x: -3.8535220623
    y: -2.16599988937
    z: 0.0
  - 
    x: -5.17903900146
    y: -0.895240902901
    z: 0.0
  - 
    x: -5.17903900146
    y: 0.895240902901
    z: 0.0
  - 
    x: -3.72015428543
    y: 2.08899998665
    z: 0.0
  - 
    x: -2.84678554535
    y: 3.26974081993
    z: 0.0
  - 
    x: -0.157000005245
    y: 4.25500011444
    z: 0.0
channels: []
---
header: 
  seq: 184
  stamp: 
    secs: 1450835102
    nsecs: 774449037
  frame_id: sonar_frame
points: 
  - 
    x: 0.0689999982715
    y: 4.34000015259
    z: 0.0
  - 
    x: 2.11114120483
    y: 2.49909996986
    z: 0.0
  - 
    x: 4.47812700272
    y: 2.57800006866
    z: 0.0
  - 
    x: 2.99732232094
    y: 0.526238501072
    z: 0.0
  - 
    x: 3.03080582619
    y: -0.532142519951
    z: 0.0
  - 
    x: 3.6354842186
    y: -2.09150004387
    z: 0.0
  - 
    x: 3.32793807983
    y: -3.94922232628
    z: 0.0
  - 
    x: 0.0689999982715
    y: -5.1360001564
    z: 0.0
  - 
    x: -0.157000005245
    y: -5.1360001564
    z: 0.0
  - 
    x: -2.42254567146
    y: -2.76415157318
    z: 0.0
  - 
    x: -3.8535220623
    y: -2.16599988937
    z: 0.0
  - 
    x: -5.17903900146
    y: -0.895240902901
    z: 0.0
  - 
    x: -5.17903900146
    y: 0.895240902901
    z: 0.0
  - 
    x: -3.72015428543
    y: 2.08899998665
    z: 0.0
  - 
    x: -2.84678554535
    y: 3.26974081993
    z: 0.0
  - 
    x: -0.157000005245
    y: 4.25500011444
    z: 0.0
channels: []
---
header: 
  seq: 185
  stamp: 
    secs: 1450835102
    nsecs: 873990733
  frame_id: sonar_frame
points: 
  - 
    x: 0.0689999982715
    y: 4.34000015259
    z: 0.0
  - 
    x: 2.11114120483
    y: 2.49909996986
    z: 0.0
  - 
    x: 4.47812700272
    y: 2.57800006866
    z: 0.0
  - 
    x: 2.99732232094
    y: 0.526238501072
    z: 0.0
  - 
    x: 3.03080582619
    y: -0.532142519951
    z: 0.0
  - 
    x: 3.6354842186
    y: -2.09150004387
    z: 0.0
  - 
    x: 3.32793807983
    y: -3.94922232628
    z: 0.0
  - 
    x: 0.0689999982715
    y: -5.1360001564
    z: 0.0
  - 
    x: -0.157000005245
    y: -5.1360001564
    z: 0.0
  - 
    x: -2.42254567146
    y: -2.76415157318
    z: 0.0
  - 
    x: -3.8535220623
    y: -2.16599988937
    z: 0.0
  - 
    x: -5.17903900146
    y: -0.895240902901
    z: 0.0
  - 
    x: -5.17903900146
    y: 0.895240902901
    z: 0.0
  - 
    x: -3.72015428543
    y: 2.08899998665
    z: 0.0
  - 
    x: -2.84678554535
    y: 3.26974081993
    z: 0.0
  - 
    x: -0.157000005245
    y: 4.25500011444
    z: 0.0
channels: []
---
header: 
  seq: 186
  stamp: 
    secs: 1450835102
    nsecs: 974607861
  frame_id: sonar_frame
points: 
  - 
    x: 0.0689999982715
    y: 4.34000015259
    z: 0.0
  - 
    x: 2.11114120483
    y: 2.49909996986
    z: 0.0
  - 
    x: 4.47812700272
    y: 2.57800006866
    z: 0.0
  - 
    x: 2.99732232094
    y: 0.526238501072
    z: 0.0
  - 
    x: 3.03080582619
    y: -0.532142519951
    z: 0.0
  - 
    x: 3.6354842186
    y: -2.09150004387
    z: 0.0
  - 
    x: 3.32793807983
    y: -3.94922232628
    z: 0.0
  - 
    x: 0.0689999982715
    y: -5.1360001564
    z: 0.0
  - 
    x: -0.157000005245
    y: -5.1360001564
    z: 0.0
  - 
    x: -2.42254567146
    y: -2.76415157318
    z: 0.0
  - 
    x: -3.8535220623
    y: -2.16599988937
    z: 0.0
  - 
    x: -5.17903900146
    y: -0.895240902901
    z: 0.0
  - 
    x: -5.17903900146
    y: 0.895240902901
    z: 0.0
  - 
    x: -3.72015428543
    y: 2.08899998665
    z: 0.0
  - 
    x: -2.84678554535
    y: 3.26974081993
    z: 0.0
  - 
    x: -0.157000005245
    y: 4.25500011444
    z: 0.0
channels: []
---
header: 
  seq: 187
  stamp: 
    secs: 1450835103
    nsecs: 75294530
  frame_id: sonar_frame
points: 
  - 
    x: 0.0689999982715
    y: 4.34000015259
    z: 0.0
  - 
    x: 2.11114120483
    y: 2.49909996986
    z: 0.0
  - 
    x: 4.47812700272
    y: 2.57800006866
    z: 0.0
  - 
    x: 2.99732232094
    y: 0.526238501072
    z: 0.0
  - 
    x: 3.03080582619
    y: -0.532142519951
    z: 0.0
  - 
    x: 3.6354842186
    y: -2.09150004387
    z: 0.0
  - 
    x: 3.32793807983
    y: -3.94922232628
    z: 0.0
  - 
    x: 0.0689999982715
    y: -5.1360001564
    z: 0.0
  - 
    x: -0.157000005245
    y: -5.1360001564
    z: 0.0
  - 
    x: -2.42254567146
    y: -2.76415157318
    z: 0.0
  - 
    x: -3.8535220623
    y: -2.16599988937
    z: 0.0
  - 
    x: -5.17903900146
    y: -0.895240902901
    z: 0.0
  - 
    x: -5.17903900146
    y: 0.895240902901
    z: 0.0
  - 
    x: -3.72015428543
    y: 2.08899998665
    z: 0.0
  - 
    x: -2.84678554535
    y: 3.26974081993
    z: 0.0
  - 
    x: -0.157000005245
    y: 4.25600004196
    z: 0.0
channels: []
---
header: 
  seq: 188
  stamp: 
    secs: 1450835103
    nsecs: 174726163
  frame_id: sonar_frame
points: 
  - 
    x: 0.0689999982715
    y: 4.34000015259
    z: 0.0
  - 
    x: 2.11114120483
    y: 2.49909996986
    z: 0.0
  - 
    x: 4.47812700272
    y: 2.57800006866
    z: 0.0
  - 
    x: 2.99732232094
    y: 0.526238501072
    z: 0.0
  - 
    x: 3.03080582619
    y: -0.532142519951
    z: 0.0
  - 
    x: 3.6354842186
    y: -2.09150004387
    z: 0.0
  - 
    x: 3.32793807983
    y: -3.94922232628
    z: 0.0
  - 
    x: 0.0689999982715
    y: -5.1360001564
    z: 0.0
  - 
    x: -0.157000005245
    y: -5.1360001564
    z: 0.0
  - 
    x: -2.42254567146
    y: -2.76415157318
    z: 0.0
  - 
    x: -3.8535220623
    y: -2.16599988937
    z: 0.0
  - 
    x: -5.17903900146
    y: -0.895240902901
    z: 0.0
  - 
    x: -5.17903900146
    y: 0.895240902901
    z: 0.0
  - 
    x: -3.72015428543
    y: 2.08899998665
    z: 0.0
  - 
    x: -2.84742832184
    y: 3.27050685883
    z: 0.0
  - 
    x: -0.157000005245
    y: 4.25500011444
    z: 0.0
channels: []
---
header: 
  seq: 189
  stamp: 
    secs: 1450835103
    nsecs: 275532054
  frame_id: sonar_frame
points: 
  - 
    x: 0.0689999982715
    y: 4.34000015259
    z: 0.0
  - 
    x: 2.11114120483
    y: 2.49909996986
    z: 0.0
  - 
    x: 4.47812700272
    y: 2.57800006866
    z: 0.0
  - 
    x: 2.99732232094
    y: 0.526238501072
    z: 0.0
  - 
    x: 3.03080582619
    y: -0.532142519951
    z: 0.0
  - 
    x: 3.6354842186
    y: -2.09150004387
    z: 0.0
  - 
    x: 3.32793807983
    y: -3.94922232628
    z: 0.0
  - 
    x: 0.0689999982715
    y: -5.1360001564
    z: 0.0
  - 
    x: -0.157000005245
    y: -5.1360001564
    z: 0.0
  - 
    x: -2.42254567146
    y: -2.76415157318
    z: 0.0
  - 
    x: -3.8535220623
    y: -2.16599988937
    z: 0.0
  - 
    x: -5.17903900146
    y: -0.895240902901
    z: 0.0
  - 
    x: -5.17903900146
    y: 0.895240902901
    z: 0.0
  - 
    x: -3.72015428543
    y: 2.08899998665
    z: 0.0
  - 
    x: -2.84678554535
    y: 3.26974081993
    z: 0.0
  - 
    x: -0.157000005245
    y: 4.25600004196
    z: 0.0
channels: []
---
header: 
  seq: 190
  stamp: 
    secs: 1450835103
    nsecs: 375351740
  frame_id: sonar_frame
points: 
  - 
    x: 0.0689999982715
    y: 4.34000015259
    z: 0.0
  - 
    x: 2.11114120483
    y: 2.49909996986
    z: 0.0
  - 
    x: 4.47812700272
    y: 2.57800006866
    z: 0.0
  - 
    x: 2.99732232094
    y: 0.526238501072
    z: 0.0
  - 
    x: 3.03080582619
    y: -0.532142519951
    z: 0.0
  - 
    x: 3.6354842186
    y: -2.09150004387
    z: 0.0
  - 
    x: 3.32793807983
    y: -3.94922232628
    z: 0.0
  - 
    x: 0.0689999982715
    y: -5.1360001564
    z: 0.0
  - 
    x: -0.157000005245
    y: -5.1360001564
    z: 0.0
  - 
    x: -2.42254567146
    y: -2.76415157318
    z: 0.0
  - 
    x: -3.8535220623
    y: -2.16599988937
    z: 0.0
  - 
    x: -5.17903900146
    y: -0.895240902901
    z: 0.0
  - 
    x: -5.17903900146
    y: 0.895240902901
    z: 0.0
  - 
    x: -3.72015428543
    y: 2.08899998665
    z: 0.0
  - 
    x: -2.84678554535
    y: 3.26974081993
    z: 0.0
  - 
    x: -0.157000005245
    y: 4.25500011444
    z: 0.0
channels: []
---
header: 
  seq: 191
  stamp: 
    secs: 1450835103
    nsecs: 475369150
  frame_id: sonar_frame
points: 
  - 
    x: 0.0689999982715
    y: 4.34000015259
    z: 0.0
  - 
    x: 2.11114120483
    y: 2.49909996986
    z: 0.0
  - 
    x: 4.47812700272
    y: 2.57800006866
    z: 0.0
  - 
    x: 2.99732232094
    y: 0.526238501072
    z: 0.0
  - 
    x: 3.02982091904
    y: -0.531968891621
    z: 0.0
  - 
    x: 3.6354842186
    y: -2.09150004387
    z: 0.0
  - 
    x: 3.32793807983
    y: -3.94922232628
    z: 0.0
  - 
    x: 0.0689999982715
    y: -5.1360001564
    z: 0.0
  - 
    x: -0.157000005245
    y: -5.1360001564
    z: 0.0
  - 
    x: -2.42254567146
    y: -2.76415157318
    z: 0.0
  - 
    x: -3.8535220623
    y: -2.16599988937
    z: 0.0
  - 
    x: -5.17903900146
    y: -0.895240902901
    z: 0.0
  - 
    x: -5.17903900146
    y: 0.895240902901
    z: 0.0
  - 
    x: -3.72015428543
    y: 2.08899998665
    z: 0.0
  - 
    x: -2.84678554535
    y: 3.26974081993
    z: 0.0
  - 
    x: -0.157000005245
    y: 4.25500011444
    z: 0.0
channels: []
---
header: 
  seq: 192
  stamp: 
    secs: 1450835103
    nsecs: 575158696
  frame_id: sonar_frame
points: 
  - 
    x: 0.0689999982715
    y: 4.34000015259
    z: 0.0
  - 
    x: 2.11114120483
    y: 2.49909996986
    z: 0.0
  - 
    x: 4.47812700272
    y: 2.57800006866
    z: 0.0
  - 
    x: 2.99732232094
    y: 0.526238501072
    z: 0.0
  - 
    x: 3.02982091904
    y: -0.531968891621
    z: 0.0
  - 
    x: 3.6354842186
    y: -2.09150004387
    z: 0.0
  - 
    x: 3.32793807983
    y: -3.94922232628
    z: 0.0
  - 
    x: 0.0689999982715
    y: -5.1360001564
    z: 0.0
  - 
    x: -0.157000005245
    y: -5.1360001564
    z: 0.0
  - 
    x: -2.42254567146
    y: -2.76415157318
    z: 0.0
  - 
    x: -3.8535220623
    y: -2.16599988937
    z: 0.0
  - 
    x: -5.17903900146
    y: -0.895240902901
    z: 0.0
  - 
    x: -5.17903900146
    y: 0.895240902901
    z: 0.0
  - 
    x: -3.72015428543
    y: 2.08899998665
    z: 0.0
  - 
    x: -2.84678554535
    y: 3.26974081993
    z: 0.0
  - 
    x: -0.157000005245
    y: 4.25500011444
    z: 0.0
channels: []
---
header: 
  seq: 193
  stamp: 
    secs: 1450835103
    nsecs: 674989190
  frame_id: sonar_frame
points: 
  - 
    x: 0.0689999982715
    y: 4.34000015259
    z: 0.0
  - 
    x: 2.11114120483
    y: 2.49909996986
    z: 0.0
  - 
    x: 4.47812700272
    y: 2.57800006866
    z: 0.0
  - 
    x: 2.99732232094
    y: 0.526238501072
    z: 0.0
  - 
    x: 3.03080582619
    y: -0.532142519951
    z: 0.0
  - 
    x: 3.6354842186
    y: -2.09150004387
    z: 0.0
  - 
    x: 3.32793807983
    y: -3.94922232628
    z: 0.0
  - 
    x: 0.0689999982715
    y: -5.1360001564
    z: 0.0
  - 
    x: -0.157000005245
    y: -5.1360001564
    z: 0.0
  - 
    x: -2.42254567146
    y: -2.76415157318
    z: 0.0
  - 
    x: -3.8535220623
    y: -2.16599988937
    z: 0.0
  - 
    x: -5.17903900146
    y: -0.895240902901
    z: 0.0
  - 
    x: -5.17903900146
    y: 0.895240902901
    z: 0.0
  - 
    x: -3.72015428543
    y: 2.08899998665
    z: 0.0
  - 
    x: -2.84678554535
    y: 3.26974081993
    z: 0.0
  - 
    x: -0.157000005245
    y: 4.25500011444
    z: 0.0
channels: []
---
header: 
  seq: 194
  stamp: 
    secs: 1450835103
    nsecs: 775665617
  frame_id: sonar_frame
points: 
  - 
    x: 0.0689999982715
    y: 4.34000015259
    z: 0.0
  - 
    x: 2.11114120483
    y: 2.49909996986
    z: 0.0
  - 
    x: 4.47812700272
    y: 2.57800006866
    z: 0.0
  - 
    x: 2.99732232094
    y: 0.526238501072
    z: 0.0
  - 
    x: 3.03080582619
    y: -0.532142519951
    z: 0.0
  - 
    x: 3.6354842186
    y: -2.09150004387
    z: 0.0
  - 
    x: 3.32793807983
    y: -3.94922232628
    z: 0.0
  - 
    x: 0.0689999982715
    y: -5.1360001564
    z: 0.0
  - 
    x: -0.157000005245
    y: -5.1360001564
    z: 0.0
  - 
    x: -2.42254567146
    y: -2.76415157318
    z: 0.0
  - 
    x: -3.8535220623
    y: -2.16599988937
    z: 0.0
  - 
    x: -5.17903900146
    y: -0.895240902901
    z: 0.0
  - 
    x: -5.17903900146
    y: 0.895240902901
    z: 0.0
  - 
    x: -3.72015428543
    y: 2.08899998665
    z: 0.0
  - 
    x: -2.84678554535
    y: 3.26974081993
    z: 0.0
  - 
    x: -0.157000005245
    y: 4.25500011444
    z: 0.0
channels: []
---
header: 
  seq: 195
  stamp: 
    secs: 1450835103
    nsecs: 876352546
  frame_id: sonar_frame
points: 
  - 
    x: 0.0689999982715
    y: 4.34000015259
    z: 0.0
  - 
    x: 2.11114120483
    y: 2.49909996986
    z: 0.0
  - 
    x: 4.47812700272
    y: 2.57800006866
    z: 0.0
  - 
    x: 2.99732232094
    y: 0.526238501072
    z: 0.0
  - 
    x: 3.03080582619
    y: -0.532142519951
    z: 0.0
  - 
    x: 3.6354842186
    y: -2.09150004387
    z: 0.0
  - 
    x: 3.32793807983
    y: -3.94922232628
    z: 0.0
  - 
    x: 0.0689999982715
    y: -5.1360001564
    z: 0.0
  - 
    x: -0.157000005245
    y: -5.1360001564
    z: 0.0
  - 
    x: -2.42254567146
    y: -2.76415157318
    z: 0.0
  - 
    x: -3.8535220623
    y: -2.16599988937
    z: 0.0
  - 
    x: -5.17903900146
    y: -0.895240902901
    z: 0.0
  - 
    x: -5.17903900146
    y: 0.895240902901
    z: 0.0
  - 
    x: -3.72015428543
    y: 2.08899998665
    z: 0.0
  - 
    x: -2.84678554535
    y: 3.26974081993
    z: 0.0
  - 
    x: -0.157000005245
    y: 4.25600004196
    z: 0.0
channels: []
---
header: 
  seq: 196
  stamp: 
    secs: 1450835103
    nsecs: 975941077
  frame_id: sonar_frame
points: 
  - 
    x: 0.0689999982715
    y: 4.34000015259
    z: 0.0
  - 
    x: 2.11114120483
    y: 2.49909996986
    z: 0.0
  - 
    x: 4.47812700272
    y: 2.57800006866
    z: 0.0
  - 
    x: 2.99732232094
    y: 0.526238501072
    z: 0.0
  - 
    x: 3.03080582619
    y: -0.532142519951
    z: 0.0
  - 
    x: 3.6354842186
    y: -2.09150004387
    z: 0.0
  - 
    x: 3.32793807983
    y: -3.94922232628
    z: 0.0
  - 
    x: 0.0689999982715
    y: -5.1360001564
    z: 0.0
  - 
    x: -0.157000005245
    y: -5.1360001564
    z: 0.0
  - 
    x: -2.42254567146
    y: -2.76415157318
    z: 0.0
  - 
    x: -3.8535220623
    y: -2.16599988937
    z: 0.0
  - 
    x: -5.17903900146
    y: -0.895240902901
    z: 0.0
  - 
    x: -5.17903900146
    y: 0.895240902901
    z: 0.0
  - 
    x: -3.72015428543
    y: 2.08899998665
    z: 0.0
  - 
    x: -2.84678554535
    y: 3.26974081993
    z: 0.0
  - 
    x: -0.157000005245
    y: 4.25500011444
    z: 0.0
channels: []
---
header: 
  seq: 197
  stamp: 
    secs: 1450835104
    nsecs: 76615726
  frame_id: sonar_frame
points: 
  - 
    x: 0.0689999982715
    y: 4.34000015259
    z: 0.0
  - 
    x: 2.11114120483
    y: 2.49909996986
    z: 0.0
  - 
    x: 4.47812700272
    y: 2.57800006866
    z: 0.0
  - 
    x: 2.99732232094
    y: 0.526238501072
    z: 0.0
  - 
    x: 3.03080582619
    y: -0.532142519951
    z: 0.0
  - 
    x: 3.6354842186
    y: -2.09150004387
    z: 0.0
  - 
    x: 3.32793807983
    y: -3.94922232628
    z: 0.0
  - 
    x: 0.0689999982715
    y: -5.1360001564
    z: 0.0
  - 
    x: -0.157000005245
    y: -5.1360001564
    z: 0.0
  - 
    x: -2.42254567146
    y: -2.76415157318
    z: 0.0
  - 
    x: -3.8535220623
    y: -2.16599988937
    z: 0.0
  - 
    x: -5.17903900146
    y: -0.895240902901
    z: 0.0
  - 
    x: -5.17903900146
    y: 0.895240902901
    z: 0.0
  - 
    x: -3.72015428543
    y: 2.08899998665
    z: 0.0
  - 
    x: -2.84678554535
    y: 3.26974081993
    z: 0.0
  - 
    x: -0.157000005245
    y: 4.25500011444
    z: 0.0
channels: []
---
header: 
  seq: 198
  stamp: 
    secs: 1450835104
    nsecs: 177178897
  frame_id: sonar_frame
points: 
  - 
    x: 0.0689999982715
    y: 4.34000015259
    z: 0.0
  - 
    x: 2.11114120483
    y: 2.49909996986
    z: 0.0
  - 
    x: 4.47812700272
    y: 2.57800006866
    z: 0.0
  - 
    x: 2.99732232094
    y: 0.526238501072
    z: 0.0
  - 
    x: 3.03080582619
    y: -0.532142519951
    z: 0.0
  - 
    x: 3.6354842186
    y: -2.09150004387
    z: 0.0
  - 
    x: 3.32793807983
    y: -3.94922232628
    z: 0.0
  - 
    x: 0.0689999982715
    y: -5.1360001564
    z: 0.0
  - 
    x: -0.157000005245
    y: -5.1360001564
    z: 0.0
  - 
    x: -2.42254567146
    y: -2.76415157318
    z: 0.0
  - 
    x: -3.8535220623
    y: -2.16599988937
    z: 0.0
  - 
    x: -5.17903900146
    y: -0.895240902901
    z: 0.0
  - 
    x: -5.17903900146
    y: 0.895240902901
    z: 0.0
  - 
    x: -3.72015428543
    y: 2.08899998665
    z: 0.0
  - 
    x: -2.84678554535
    y: 3.26974081993
    z: 0.0
  - 
    x: -0.157000005245
    y: 4.25500011444
    z: 0.0
channels: []
---
header: 
  seq: 199
  stamp: 
    secs: 1450835104
    nsecs: 277624451
  frame_id: sonar_frame
points: 
  - 
    x: 0.0689999982715
    y: 4.34000015259
    z: 0.0
  - 
    x: 2.11114120483
    y: 2.49909996986
    z: 0.0
  - 
    x: 4.47812700272
    y: 2.57800006866
    z: 0.0
  - 
    x: 2.99732232094
    y: 0.526238501072
    z: 0.0
  - 
    x: 3.03080582619
    y: -0.532142519951
    z: 0.0
  - 
    x: 3.6354842186
    y: -2.09150004387
    z: 0.0
  - 
    x: 3.32793807983
    y: -3.94922232628
    z: 0.0
  - 
    x: 0.0689999982715
    y: -5.1360001564
    z: 0.0
  - 
    x: -0.157000005245
    y: -5.1360001564
    z: 0.0
  - 
    x: -2.42254567146
    y: -2.76415157318
    z: 0.0
  - 
    x: -3.8535220623
    y: -2.16599988937
    z: 0.0
  - 
    x: -5.17903900146
    y: -0.895240902901
    z: 0.0
  - 
    x: -5.17903900146
    y: 0.895240902901
    z: 0.0
  - 
    x: -3.72015428543
    y: 2.08899998665
    z: 0.0
  - 
    x: -2.84678554535
    y: 3.26974081993
    z: 0.0
  - 
    x: -0.157000005245
    y: 4.25600004196
    z: 0.0
channels: []
---
header: 
  seq: 200
  stamp: 
    secs: 1450835104
    nsecs: 378355826
  frame_id: sonar_frame
points: 
  - 
    x: 0.0689999982715
    y: 4.34000015259
    z: 0.0
  - 
    x: 2.11114120483
    y: 2.49909996986
    z: 0.0
  - 
    x: 4.47812700272
    y: 2.57800006866
    z: 0.0
  - 
    x: 2.99732232094
    y: 0.526238501072
    z: 0.0
  - 
    x: 3.03080582619
    y: -0.532142519951
    z: 0.0
  - 
    x: 3.6354842186
    y: -2.09150004387
    z: 0.0
  - 
    x: 3.32793807983
    y: -3.94922232628
    z: 0.0
  - 
    x: 0.0689999982715
    y: -5.1360001564
    z: 0.0
  - 
    x: -0.157000005245
    y: -5.1360001564
    z: 0.0
  - 
    x: -2.42254567146
    y: -2.76415157318
    z: 0.0
  - 
    x: -3.8535220623
    y: -2.16599988937
    z: 0.0
  - 
    x: -5.17903900146
    y: -0.895240902901
    z: 0.0
  - 
    x: -5.17903900146
    y: 0.895240902901
    z: 0.0
  - 
    x: -3.72015428543
    y: 2.08899998665
    z: 0.0
  - 
    x: -2.84742832184
    y: 3.27050685883
    z: 0.0
  - 
    x: -0.157000005245
    y: 4.25500011444
    z: 0.0
channels: []
---
header: 
  seq: 201
  stamp: 
    secs: 1450835104
    nsecs: 478103553
  frame_id: sonar_frame
points: 
  - 
    x: 0.0689999982715
    y: 4.34000015259
    z: 0.0
  - 
    x: 2.11114120483
    y: 2.49909996986
    z: 0.0
  - 
    x: 4.47812700272
    y: 2.57800006866
    z: 0.0
  - 
    x: 2.99732232094
    y: 0.526238501072
    z: 0.0
  - 
    x: 3.03080582619
    y: -0.532142519951
    z: 0.0
  - 
    x: 3.6354842186
    y: -2.09150004387
    z: 0.0
  - 
    x: 3.32793807983
    y: -3.94922232628
    z: 0.0
  - 
    x: 0.0689999982715
    y: -5.1360001564
    z: 0.0
  - 
    x: -0.157000005245
    y: -5.1360001564
    z: 0.0
  - 
    x: -2.42254567146
    y: -2.76415157318
    z: 0.0
  - 
    x: -3.8535220623
    y: -2.16599988937
    z: 0.0
  - 
    x: -5.17903900146
    y: -0.895240902901
    z: 0.0
  - 
    x: -5.17903900146
    y: 0.895240902901
    z: 0.0
  - 
    x: -3.72015428543
    y: 2.08899998665
    z: 0.0
  - 
    x: -2.84678554535
    y: 3.26974081993
    z: 0.0
  - 
    x: -0.157000005245
    y: 4.25500011444
    z: 0.0
channels: []
---
header: 
  seq: 202
  stamp: 
    secs: 1450835104
    nsecs: 577943570
  frame_id: sonar_frame
points: 
  - 
    x: 0.0689999982715
    y: 4.34000015259
    z: 0.0
  - 
    x: 2.11114120483
    y: 2.49909996986
    z: 0.0
  - 
    x: 4.47812700272
    y: 2.57800006866
    z: 0.0
  - 
    x: 2.99732232094
    y: 0.526238501072
    z: 0.0
  - 
    x: 3.03080582619
    y: -0.532142519951
    z: 0.0
  - 
    x: 3.6354842186
    y: -2.09150004387
    z: 0.0
  - 
    x: 3.32793807983
    y: -3.94922232628
    z: 0.0
  - 
    x: 0.0689999982715
    y: -5.1360001564
    z: 0.0
  - 
    x: -0.157000005245
    y: -5.1360001564
    z: 0.0
  - 
    x: -2.42254567146
    y: -2.76415157318
    z: 0.0
  - 
    x: -3.8535220623
    y: -2.16599988937
    z: 0.0
  - 
    x: -5.17903900146
    y: -0.895240902901
    z: 0.0
  - 
    x: -5.17903900146
    y: 0.895240902901
    z: 0.0
  - 
    x: -3.72015428543
    y: 2.08899998665
    z: 0.0
  - 
    x: -2.84678554535
    y: 3.26974081993
    z: 0.0
  - 
    x: -0.157000005245
    y: 4.25500011444
    z: 0.0
channels: []
---
header: 
  seq: 203
  stamp: 
    secs: 1450835104
    nsecs: 678699986
  frame_id: sonar_frame
points: 
  - 
    x: 0.0689999982715
    y: 4.34000015259
    z: 0.0
  - 
    x: 2.11114120483
    y: 2.49909996986
    z: 0.0
  - 
    x: 4.47812700272
    y: 2.57800006866
    z: 0.0
  - 
    x: 2.99732232094
    y: 0.526238501072
    z: 0.0
  - 
    x: 3.03080582619
    y: -0.532142519951
    z: 0.0
  - 
    x: 3.6354842186
    y: -2.09150004387
    z: 0.0
  - 
    x: 3.32793807983
    y: -3.94922232628
    z: 0.0
  - 
    x: 0.0689999982715
    y: -5.1360001564
    z: 0.0
  - 
    x: -0.157000005245
    y: -5.1360001564
    z: 0.0
  - 
    x: -2.42254567146
    y: -2.76415157318
    z: 0.0
  - 
    x: -3.8535220623
    y: -2.16599988937
    z: 0.0
  - 
    x: -5.17903900146
    y: -0.895240902901
    z: 0.0
  - 
    x: -5.17903900146
    y: 0.895240902901
    z: 0.0
  - 
    x: -3.72015428543
    y: 2.08899998665
    z: 0.0
  - 
    x: -2.84678554535
    y: 3.26974081993
    z: 0.0
  - 
    x: -0.157000005245
    y: 4.25600004196
    z: 0.0
channels: []
---
header: 
  seq: 204
  stamp: 
    secs: 1450835104
    nsecs: 779307504
  frame_id: sonar_frame
points: 
  - 
    x: 0.0689999982715
    y: 4.34000015259
    z: 0.0
  - 
    x: 2.11114120483
    y: 2.49909996986
    z: 0.0
  - 
    x: 4.47812700272
    y: 2.57800006866
    z: 0.0
  - 
    x: 2.99732232094
    y: 0.526238501072
    z: 0.0
  - 
    x: 3.03080582619
    y: -0.532142519951
    z: 0.0
  - 
    x: 3.6354842186
    y: -2.09150004387
    z: 0.0
  - 
    x: 3.32793807983
    y: -3.94922232628
    z: 0.0
  - 
    x: 0.0689999982715
    y: -5.1360001564
    z: 0.0
  - 
    x: -0.157000005245
    y: -5.1360001564
    z: 0.0
  - 
    x: -2.42254567146
    y: -2.76415157318
    z: 0.0
  - 
    x: -3.8535220623
    y: -2.16599988937
    z: 0.0
  - 
    x: -5.17903900146
    y: -0.895240902901
    z: 0.0
  - 
    x: -5.17903900146
    y: 0.895240902901
    z: 0.0
  - 
    x: -3.72015428543
    y: 2.08899998665
    z: 0.0
  - 
    x: -2.84678554535
    y: 3.26974081993
    z: 0.0
  - 
    x: -0.157000005245
    y: 4.25500011444
    z: 0.0
channels: []
---
header: 
  seq: 205
  stamp: 
    secs: 1450835104
    nsecs: 878919543
  frame_id: sonar_frame
points: 
  - 
    x: 0.0689999982715
    y: 4.34000015259
    z: 0.0
  - 
    x: 2.11114120483
    y: 2.49909996986
    z: 0.0
  - 
    x: 4.47812700272
    y: 2.57800006866
    z: 0.0
  - 
    x: 2.99732232094
    y: 0.526238501072
    z: 0.0
  - 
    x: 3.03080582619
    y: -0.532142519951
    z: 0.0
  - 
    x: 3.6354842186
    y: -2.09150004387
    z: 0.0
  - 
    x: 3.32793807983
    y: -3.94922232628
    z: 0.0
  - 
    x: 0.0689999982715
    y: -5.1360001564
    z: 0.0
  - 
    x: -0.157000005245
    y: -5.1360001564
    z: 0.0
  - 
    x: -2.42254567146
    y: -2.76415157318
    z: 0.0
  - 
    x: -3.8535220623
    y: -2.16599988937
    z: 0.0
  - 
    x: -5.17903900146
    y: -0.895240902901
    z: 0.0
  - 
    x: -5.17903900146
    y: 0.895240902901
    z: 0.0
  - 
    x: -3.72015428543
    y: 2.08899998665
    z: 0.0
  - 
    x: -2.84678554535
    y: 3.26974081993
    z: 0.0
  - 
    x: -0.157000005245
    y: 4.25500011444
    z: 0.0
channels: []
---
header: 
  seq: 206
  stamp: 
    secs: 1450835104
    nsecs: 979439303
  frame_id: sonar_frame
points: 
  - 
    x: 0.0689999982715
    y: 4.34000015259
    z: 0.0
  - 
    x: 2.11114120483
    y: 2.49909996986
    z: 0.0
  - 
    x: 4.47812700272
    y: 2.57800006866
    z: 0.0
  - 
    x: 2.99732232094
    y: 0.526238501072
    z: 0.0
  - 
    x: 3.02982091904
    y: -0.531968891621
    z: 0.0
  - 
    x: 3.6354842186
    y: -2.09150004387
    z: 0.0
  - 
    x: 3.32793807983
    y: -3.94922232628
    z: 0.0
  - 
    x: 0.0689999982715
    y: -5.1360001564
    z: 0.0
  - 
    x: -0.157000005245
    y: -5.1360001564
    z: 0.0
  - 
    x: -2.42254567146
    y: -2.76415157318
    z: 0.0
  - 
    x: -3.8535220623
    y: -2.16599988937
    z: 0.0
  - 
    x: -5.17903900146
    y: -0.895240902901
    z: 0.0
  - 
    x: -5.17903900146
    y: 0.895240902901
    z: 0.0
  - 
    x: -3.72015428543
    y: 2.08899998665
    z: 0.0
  - 
    x: -2.84678554535
    y: 3.26974081993
    z: 0.0
  - 
    x: -0.157000005245
    y: 4.25500011444
    z: 0.0
channels: []
---
header: 
  seq: 207
  stamp: 
    secs: 1450835105
    nsecs: 79182514
  frame_id: sonar_frame
points: 
  - 
    x: 0.0689999982715
    y: 4.34000015259
    z: 0.0
  - 
    x: 2.11114120483
    y: 2.49909996986
    z: 0.0
  - 
    x: 4.47812700272
    y: 2.57800006866
    z: 0.0
  - 
    x: 2.99732232094
    y: 0.526238501072
    z: 0.0
  - 
    x: 3.03080582619
    y: -0.532142519951
    z: 0.0
  - 
    x: 3.6354842186
    y: -2.09150004387
    z: 0.0
  - 
    x: 3.32793807983
    y: -3.94922232628
    z: 0.0
  - 
    x: 0.0689999982715
    y: -5.1360001564
    z: 0.0
  - 
    x: -0.157000005245
    y: -5.1360001564
    z: 0.0
  - 
    x: -2.42254567146
    y: -2.76415157318
    z: 0.0
  - 
    x: -3.8535220623
    y: -2.16599988937
    z: 0.0
  - 
    x: -5.17903900146
    y: -0.895240902901
    z: 0.0
  - 
    x: -5.17903900146
    y: 0.895240902901
    z: 0.0
  - 
    x: -3.72015428543
    y: 2.08899998665
    z: 0.0
  - 
    x: -2.84742832184
    y: 3.27050685883
    z: 0.0
  - 
    x: -0.157000005245
    y: 4.25500011444
    z: 0.0
channels: []
---
header: 
  seq: 208
  stamp: 
    secs: 1450835105
    nsecs: 178963860
  frame_id: sonar_frame
points: 
  - 
    x: 0.0689999982715
    y: 4.34000015259
    z: 0.0
  - 
    x: 2.11114120483
    y: 2.49909996986
    z: 0.0
  - 
    x: 4.47812700272
    y: 2.57800006866
    z: 0.0
  - 
    x: 2.99732232094
    y: 0.526238501072
    z: 0.0
  - 
    x: 3.03080582619
    y: -0.532142519951
    z: 0.0
  - 
    x: 3.6354842186
    y: -2.09150004387
    z: 0.0
  - 
    x: 3.32793807983
    y: -3.94922232628
    z: 0.0
  - 
    x: 0.0689999982715
    y: -5.1360001564
    z: 0.0
  - 
    x: -0.157000005245
    y: -5.1360001564
    z: 0.0
  - 
    x: -2.42254567146
    y: -2.76415157318
    z: 0.0
  - 
    x: -3.8535220623
    y: -2.16599988937
    z: 0.0
  - 
    x: -5.17903900146
    y: -0.895240902901
    z: 0.0
  - 
    x: -5.17903900146
    y: 0.895240902901
    z: 0.0
  - 
    x: -3.72015428543
    y: 2.08899998665
    z: 0.0
  - 
    x: -2.84678554535
    y: 3.26974081993
    z: 0.0
  - 
    x: -0.157000005245
    y: 4.25500011444
    z: 0.0
channels: []
---
header: 
  seq: 209
  stamp: 
    secs: 1450835105
    nsecs: 279556888
  frame_id: sonar_frame
points: 
  - 
    x: 0.0689999982715
    y: 4.34000015259
    z: 0.0
  - 
    x: 2.11114120483
    y: 2.49909996986
    z: 0.0
  - 
    x: 4.47812700272
    y: 2.57800006866
    z: 0.0
  - 
    x: 2.99732232094
    y: 0.526238501072
    z: 0.0
  - 
    x: 3.03080582619
    y: -0.532142519951
    z: 0.0
  - 
    x: 3.6354842186
    y: -2.09150004387
    z: 0.0
  - 
    x: 3.32793807983
    y: -3.94922232628
    z: 0.0
  - 
    x: 0.0689999982715
    y: -5.1360001564
    z: 0.0
  - 
    x: -0.157000005245
    y: -5.1360001564
    z: 0.0
  - 
    x: -2.42254567146
    y: -2.76415157318
    z: 0.0
  - 
    x: -3.8535220623
    y: -2.16599988937
    z: 0.0
  - 
    x: -5.17903900146
    y: -0.895240902901
    z: 0.0
  - 
    x: -5.17903900146
    y: 0.895240902901
    z: 0.0
  - 
    x: -3.72015428543
    y: 2.08899998665
    z: 0.0
  - 
    x: -2.84678554535
    y: 3.26974081993
    z: 0.0
  - 
    x: -0.157000005245
    y: 4.25500011444
    z: 0.0
channels: []
---
header: 
  seq: 210
  stamp: 
    secs: 1450835105
    nsecs: 379021758
  frame_id: sonar_frame
points: 
  - 
    x: 0.0689999982715
    y: 4.34000015259
    z: 0.0
  - 
    x: 2.11114120483
    y: 2.49909996986
    z: 0.0
  - 
    x: 4.47812700272
    y: 2.57800006866
    z: 0.0
  - 
    x: 2.99732232094
    y: 0.526238501072
    z: 0.0
  - 
    x: 3.03080582619
    y: -0.532142519951
    z: 0.0
  - 
    x: 3.6354842186
    y: -2.09150004387
    z: 0.0
  - 
    x: 3.32793807983
    y: -3.94922232628
    z: 0.0
  - 
    x: 0.0689999982715
    y: -5.1360001564
    z: 0.0
  - 
    x: -0.157000005245
    y: -5.1360001564
    z: 0.0
  - 
    x: -2.42254567146
    y: -2.76415157318
    z: 0.0
  - 
    x: -3.8535220623
    y: -2.16599988937
    z: 0.0
  - 
    x: -5.17903900146
    y: -0.895240902901
    z: 0.0
  - 
    x: -5.17903900146
    y: 0.895240902901
    z: 0.0
  - 
    x: -3.72015428543
    y: 2.08899998665
    z: 0.0
  - 
    x: -2.84678554535
    y: 3.26974081993
    z: 0.0
  - 
    x: -0.157000005245
    y: 4.25500011444
    z: 0.0
channels: []
---
header: 
  seq: 211
  stamp: 
    secs: 1450835105
    nsecs: 479607870
  frame_id: sonar_frame
points: 
  - 
    x: 0.0689999982715
    y: 4.34000015259
    z: 0.0
  - 
    x: 2.11114120483
    y: 2.49909996986
    z: 0.0
  - 
    x: 4.47812700272
    y: 2.57800006866
    z: 0.0
  - 
    x: 2.99732232094
    y: 0.526238501072
    z: 0.0
  - 
    x: 3.03080582619
    y: -0.532142519951
    z: 0.0
  - 
    x: 3.6354842186
    y: -2.09150004387
    z: 0.0
  - 
    x: 3.32793807983
    y: -3.94922232628
    z: 0.0
  - 
    x: 0.0689999982715
    y: -5.1360001564
    z: 0.0
  - 
    x: -0.157000005245
    y: -5.1360001564
    z: 0.0
  - 
    x: -2.42254567146
    y: -2.76415157318
    z: 0.0
  - 
    x: -3.8535220623
    y: -2.16599988937
    z: 0.0
  - 
    x: -5.17903900146
    y: -0.895240902901
    z: 0.0
  - 
    x: -5.17903900146
    y: 0.895240902901
    z: 0.0
  - 
    x: -3.72015428543
    y: 2.08899998665
    z: 0.0
  - 
    x: -2.84678554535
    y: 3.26974081993
    z: 0.0
  - 
    x: -0.157000005245
    y: 4.25500011444
    z: 0.0
channels: []
---
header: 
  seq: 212
  stamp: 
    secs: 1450835105
    nsecs: 579346480
  frame_id: sonar_frame
points: 
  - 
    x: 0.0689999982715
    y: 4.34000015259
    z: 0.0
  - 
    x: 2.11114120483
    y: 2.49909996986
    z: 0.0
  - 
    x: 4.47812700272
    y: 2.57800006866
    z: 0.0
  - 
    x: 2.99732232094
    y: 0.526238501072
    z: 0.0
  - 
    x: 3.03080582619
    y: -0.532142519951
    z: 0.0
  - 
    x: 3.6354842186
    y: -2.09150004387
    z: 0.0
  - 
    x: 3.32793807983
    y: -3.94922232628
    z: 0.0
  - 
    x: 0.0689999982715
    y: -5.1360001564
    z: 0.0
  - 
    x: -0.157000005245
    y: -5.1360001564
    z: 0.0
  - 
    x: -2.42254567146
    y: -2.76415157318
    z: 0.0
  - 
    x: -3.8535220623
    y: -2.16599988937
    z: 0.0
  - 
    x: -5.17903900146
    y: -0.895240902901
    z: 0.0
  - 
    x: -5.17903900146
    y: 0.895240902901
    z: 0.0
  - 
    x: -3.72015428543
    y: 2.08899998665
    z: 0.0
  - 
    x: -2.84678554535
    y: 3.26974081993
    z: 0.0
  - 
    x: -0.157000005245
    y: 4.25500011444
    z: 0.0
channels: []
---
header: 
  seq: 213
  stamp: 
    secs: 1450835105
    nsecs: 678847307
  frame_id: sonar_frame
points: 
  - 
    x: 0.0689999982715
    y: 4.34000015259
    z: 0.0
  - 
    x: 2.11114120483
    y: 2.49909996986
    z: 0.0
  - 
    x: 4.47812700272
    y: 2.57800006866
    z: 0.0
  - 
    x: 2.99732232094
    y: 0.526238501072
    z: 0.0
  - 
    x: 3.03080582619
    y: -0.532142519951
    z: 0.0
  - 
    x: 3.6354842186
    y: -2.09150004387
    z: 0.0
  - 
    x: 3.32793807983
    y: -3.94922232628
    z: 0.0
  - 
    x: 0.0689999982715
    y: -5.1360001564
    z: 0.0
  - 
    x: -0.157000005245
    y: -5.1360001564
    z: 0.0
  - 
    x: -2.42254567146
    y: -2.76415157318
    z: 0.0
  - 
    x: -3.8535220623
    y: -2.16599988937
    z: 0.0
  - 
    x: -5.17903900146
    y: -0.895240902901
    z: 0.0
  - 
    x: -5.17903900146
    y: 0.895240902901
    z: 0.0
  - 
    x: -3.72015428543
    y: 2.08899998665
    z: 0.0
  - 
    x: -2.84678554535
    y: 3.26974081993
    z: 0.0
  - 
    x: -0.157000005245
    y: 4.25500011444
    z: 0.0
channels: []
---
header: 
  seq: 214
  stamp: 
    secs: 1450835105
    nsecs: 779340446
  frame_id: sonar_frame
points: 
  - 
    x: 0.0689999982715
    y: 4.34000015259
    z: 0.0
  - 
    x: 2.11114120483
    y: 2.49909996986
    z: 0.0
  - 
    x: 4.47812700272
    y: 2.57800006866
    z: 0.0
  - 
    x: 2.99732232094
    y: 0.526238501072
    z: 0.0
  - 
    x: 3.03080582619
    y: -0.532142519951
    z: 0.0
  - 
    x: 3.6354842186
    y: -2.09150004387
    z: 0.0
  - 
    x: 3.32793807983
    y: -3.94922232628
    z: 0.0
  - 
    x: 0.0689999982715
    y: -5.1360001564
    z: 0.0
  - 
    x: -0.157000005245
    y: -5.1360001564
    z: 0.0
  - 
    x: -2.42254567146
    y: -2.76415157318
    z: 0.0
  - 
    x: -3.8535220623
    y: -2.16599988937
    z: 0.0
  - 
    x: -5.17903900146
    y: -0.895240902901
    z: 0.0
  - 
    x: -5.17903900146
    y: 0.895240902901
    z: 0.0
  - 
    x: -3.72015428543
    y: 2.08899998665
    z: 0.0
  - 
    x: -2.84742832184
    y: 3.27050685883
    z: 0.0
  - 
    x: -0.157000005245
    y: 4.25500011444
    z: 0.0
channels: []
---
header: 
  seq: 215
  stamp: 
    secs: 1450835105
    nsecs: 878939739
  frame_id: sonar_frame
points: 
  - 
    x: 0.0689999982715
    y: 4.34000015259
    z: 0.0
  - 
    x: 2.11114120483
    y: 2.49909996986
    z: 0.0
  - 
    x: 4.47812700272
    y: 2.57800006866
    z: 0.0
  - 
    x: 2.99732232094
    y: 0.526238501072
    z: 0.0
  - 
    x: 3.03080582619
    y: -0.532142519951
    z: 0.0
  - 
    x: 3.6354842186
    y: -2.09150004387
    z: 0.0
  - 
    x: 3.32793807983
    y: -3.94922232628
    z: 0.0
  - 
    x: 0.0689999982715
    y: -5.1360001564
    z: 0.0
  - 
    x: -0.157000005245
    y: -5.1360001564
    z: 0.0
  - 
    x: -2.42254567146
    y: -2.76415157318
    z: 0.0
  - 
    x: -3.8535220623
    y: -2.16599988937
    z: 0.0
  - 
    x: -5.17903900146
    y: -0.895240902901
    z: 0.0
  - 
    x: -5.17903900146
    y: 0.895240902901
    z: 0.0
  - 
    x: -3.72015428543
    y: 2.08899998665
    z: 0.0
  - 
    x: -2.84678554535
    y: 3.26974081993
    z: 0.0
  - 
    x: -0.157000005245
    y: 4.25600004196
    z: 0.0
channels: []
---
header: 
  seq: 216
  stamp: 
    secs: 1450835105
    nsecs: 979515221
  frame_id: sonar_frame
points: 
  - 
    x: 0.0689999982715
    y: 4.34000015259
    z: 0.0
  - 
    x: 2.11114120483
    y: 2.49909996986
    z: 0.0
  - 
    x: 4.47812700272
    y: 2.57800006866
    z: 0.0
  - 
    x: 2.99732232094
    y: 0.526238501072
    z: 0.0
  - 
    x: 3.03080582619
    y: -0.532142519951
    z: 0.0
  - 
    x: 3.6354842186
    y: -2.09150004387
    z: 0.0
  - 
    x: 3.32793807983
    y: -3.94922232628
    z: 0.0
  - 
    x: 0.0689999982715
    y: -5.1360001564
    z: 0.0
  - 
    x: -0.157000005245
    y: -5.1360001564
    z: 0.0
  - 
    x: -2.42254567146
    y: -2.76415157318
    z: 0.0
  - 
    x: -3.8535220623
    y: -2.16599988937
    z: 0.0
  - 
    x: -5.17903900146
    y: -0.895240902901
    z: 0.0
  - 
    x: -5.17903900146
    y: 0.895240902901
    z: 0.0
  - 
    x: -3.72015428543
    y: 2.08899998665
    z: 0.0
  - 
    x: -2.84678554535
    y: 3.26974081993
    z: 0.0
  - 
    x: -0.157000005245
    y: 4.25500011444
    z: 0.0
channels: []
---
header: 
  seq: 217
  stamp: 
    secs: 1450835106
    nsecs: 79274865
  frame_id: sonar_frame
points: 
  - 
    x: 0.0689999982715
    y: 4.34000015259
    z: 0.0
  - 
    x: 2.11114120483
    y: 2.49909996986
    z: 0.0
  - 
    x: 4.47812700272
    y: 2.57800006866
    z: 0.0
  - 
    x: 2.99732232094
    y: 0.526238501072
    z: 0.0
  - 
    x: 3.03080582619
    y: -0.532142519951
    z: 0.0
  - 
    x: 3.6354842186
    y: -2.09150004387
    z: 0.0
  - 
    x: 3.32793807983
    y: -3.94922232628
    z: 0.0
  - 
    x: 0.0689999982715
    y: -5.1360001564
    z: 0.0
  - 
    x: -0.157000005245
    y: -5.1360001564
    z: 0.0
  - 
    x: -2.42254567146
    y: -2.76415157318
    z: 0.0
  - 
    x: -3.8535220623
    y: -2.16599988937
    z: 0.0
  - 
    x: -5.17903900146
    y: -0.895240902901
    z: 0.0
  - 
    x: -5.17903900146
    y: 0.895240902901
    z: 0.0
  - 
    x: -3.72015428543
    y: 2.08899998665
    z: 0.0
  - 
    x: -2.84678554535
    y: 3.26974081993
    z: 0.0
  - 
    x: -0.157000005245
    y: 4.25500011444
    z: 0.0
channels: []
---
header: 
  seq: 218
  stamp: 
    secs: 1450835106
    nsecs: 178896903
  frame_id: sonar_frame
points: 
  - 
    x: 0.0689999982715
    y: 4.34000015259
    z: 0.0
  - 
    x: 2.11114120483
    y: 2.49909996986
    z: 0.0
  - 
    x: 4.47812700272
    y: 2.57800006866
    z: 0.0
  - 
    x: 2.99732232094
    y: 0.526238501072
    z: 0.0
  - 
    x: 3.03080582619
    y: -0.532142519951
    z: 0.0
  - 
    x: 3.6354842186
    y: -2.09150004387
    z: 0.0
  - 
    x: 3.32793807983
    y: -3.94922232628
    z: 0.0
  - 
    x: 0.0689999982715
    y: -5.1360001564
    z: 0.0
  - 
    x: -0.157000005245
    y: -5.1360001564
    z: 0.0
  - 
    x: -2.42254567146
    y: -2.76415157318
    z: 0.0
  - 
    x: -3.8535220623
    y: -2.16599988937
    z: 0.0
  - 
    x: -5.17903900146
    y: -0.895240902901
    z: 0.0
  - 
    x: -5.17903900146
    y: 0.895240902901
    z: 0.0
  - 
    x: -3.72015428543
    y: 2.08899998665
    z: 0.0
  - 
    x: -2.84678554535
    y: 3.26974081993
    z: 0.0
  - 
    x: -0.157000005245
    y: 4.25500011444
    z: 0.0
channels: []
---
header: 
  seq: 219
  stamp: 
    secs: 1450835106
    nsecs: 279253442
  frame_id: sonar_frame
points: 
  - 
    x: 0.0689999982715
    y: 4.34000015259
    z: 0.0
  - 
    x: 2.11114120483
    y: 2.49909996986
    z: 0.0
  - 
    x: 4.47812700272
    y: 2.57800006866
    z: 0.0
  - 
    x: 2.99732232094
    y: 0.526238501072
    z: 0.0
  - 
    x: 3.02982091904
    y: -0.531968891621
    z: 0.0
  - 
    x: 3.6354842186
    y: -2.09150004387
    z: 0.0
  - 
    x: 3.32793807983
    y: -3.94922232628
    z: 0.0
  - 
    x: 0.0689999982715
    y: -5.1360001564
    z: 0.0
  - 
    x: -0.157000005245
    y: -5.1360001564
    z: 0.0
  - 
    x: -2.42254567146
    y: -2.76415157318
    z: 0.0
  - 
    x: -3.8535220623
    y: -2.16599988937
    z: 0.0
  - 
    x: -5.17903900146
    y: -0.895240902901
    z: 0.0
  - 
    x: -5.17903900146
    y: 0.895240902901
    z: 0.0
  - 
    x: -3.72015428543
    y: 2.08899998665
    z: 0.0
  - 
    x: -2.84678554535
    y: 3.26974081993
    z: 0.0
  - 
    x: -0.157000005245
    y: 4.25600004196
    z: 0.0
channels: []
---
header: 
  seq: 220
  stamp: 
    secs: 1450835106
    nsecs: 378818052
  frame_id: sonar_frame
points: 
  - 
    x: 0.0689999982715
    y: 4.34000015259
    z: 0.0
  - 
    x: 2.11114120483
    y: 2.49909996986
    z: 0.0
  - 
    x: 4.47812700272
    y: 2.57800006866
    z: 0.0
  - 
    x: 2.99732232094
    y: 0.526238501072
    z: 0.0
  - 
    x: 3.03080582619
    y: -0.532142519951
    z: 0.0
  - 
    x: 3.6354842186
    y: -2.09150004387
    z: 0.0
  - 
    x: 3.32793807983
    y: -3.94922232628
    z: 0.0
  - 
    x: 0.0689999982715
    y: -5.1360001564
    z: 0.0
  - 
    x: -0.157000005245
    y: -5.1360001564
    z: 0.0
  - 
    x: -2.42254567146
    y: -2.76415157318
    z: 0.0
  - 
    x: -3.8535220623
    y: -2.16599988937
    z: 0.0
  - 
    x: -5.17903900146
    y: -0.895240902901
    z: 0.0
  - 
    x: -5.17903900146
    y: 0.895240902901
    z: 0.0
  - 
    x: -3.72015428543
    y: 2.08899998665
    z: 0.0
  - 
    x: -2.84678554535
    y: 3.26974081993
    z: 0.0
  - 
    x: -0.157000005245
    y: 4.25500011444
    z: 0.0
channels: []
---
header: 
  seq: 221
  stamp: 
    secs: 1450835106
    nsecs: 479362161
  frame_id: sonar_frame
points: 
  - 
    x: 0.0689999982715
    y: 4.34000015259
    z: 0.0
  - 
    x: 2.11114120483
    y: 2.49909996986
    z: 0.0
  - 
    x: 4.47812700272
    y: 2.57800006866
    z: 0.0
  - 
    x: 2.99732232094
    y: 0.526238501072
    z: 0.0
  - 
    x: 3.03080582619
    y: -0.532142519951
    z: 0.0
  - 
    x: 3.6354842186
    y: -2.09150004387
    z: 0.0
  - 
    x: 3.32793807983
    y: -3.94922232628
    z: 0.0
  - 
    x: 0.0689999982715
    y: -5.1360001564
    z: 0.0
  - 
    x: -0.157000005245
    y: -5.1360001564
    z: 0.0
  - 
    x: -2.42254567146
    y: -2.76415157318
    z: 0.0
  - 
    x: -3.8535220623
    y: -2.16599988937
    z: 0.0
  - 
    x: -5.17903900146
    y: -0.895240902901
    z: 0.0
  - 
    x: -5.17903900146
    y: 0.895240902901
    z: 0.0
  - 
    x: -3.72015428543
    y: 2.08899998665
    z: 0.0
  - 
    x: -2.84678554535
    y: 3.26974081993
    z: 0.0
  - 
    x: -0.157000005245
    y: 4.25600004196
    z: 0.0
channels: []
---
header: 
  seq: 222
  stamp: 
    secs: 1450835106
    nsecs: 578935813
  frame_id: sonar_frame
points: 
  - 
    x: 0.0689999982715
    y: 4.34000015259
    z: 0.0
  - 
    x: 2.11114120483
    y: 2.49909996986
    z: 0.0
  - 
    x: 4.47812700272
    y: 2.57800006866
    z: 0.0
  - 
    x: 2.99732232094
    y: 0.526238501072
    z: 0.0
  - 
    x: 3.03080582619
    y: -0.532142519951
    z: 0.0
  - 
    x: 3.6354842186
    y: -2.09150004387
    z: 0.0
  - 
    x: 3.32793807983
    y: -3.94922232628
    z: 0.0
  - 
    x: 0.0689999982715
    y: -5.1360001564
    z: 0.0
  - 
    x: -0.157000005245
    y: -5.1360001564
    z: 0.0
  - 
    x: -2.42254567146
    y: -2.76415157318
    z: 0.0
  - 
    x: -3.8535220623
    y: -2.16599988937
    z: 0.0
  - 
    x: -5.17903900146
    y: -0.895240902901
    z: 0.0
  - 
    x: -5.17903900146
    y: 0.895240902901
    z: 0.0
  - 
    x: -3.72015428543
    y: 2.08899998665
    z: 0.0
  - 
    x: -2.84678554535
    y: 3.26974081993
    z: 0.0
  - 
    x: -0.157000005245
    y: 4.25500011444
    z: 0.0
channels: []
---
header: 
  seq: 223
  stamp: 
    secs: 1450835106
    nsecs: 679522098
  frame_id: sonar_frame
points: 
  - 
    x: 0.0689999982715
    y: 4.34000015259
    z: 0.0
  - 
    x: 2.11114120483
    y: 2.49909996986
    z: 0.0
  - 
    x: 4.47812700272
    y: 2.57800006866
    z: 0.0
  - 
    x: 2.99732232094
    y: 0.526238501072
    z: 0.0
  - 
    x: 3.03080582619
    y: -0.532142519951
    z: 0.0
  - 
    x: 3.6354842186
    y: -2.09150004387
    z: 0.0
  - 
    x: 3.32793807983
    y: -3.94922232628
    z: 0.0
  - 
    x: 0.0689999982715
    y: -5.1360001564
    z: 0.0
  - 
    x: -0.157000005245
    y: -5.1360001564
    z: 0.0
  - 
    x: -2.42254567146
    y: -2.76415157318
    z: 0.0
  - 
    x: -3.8535220623
    y: -2.16599988937
    z: 0.0
  - 
    x: -5.17903900146
    y: -0.895240902901
    z: 0.0
  - 
    x: -5.17903900146
    y: 0.895240902901
    z: 0.0
  - 
    x: -3.72015428543
    y: 2.08899998665
    z: 0.0
  - 
    x: -2.84678554535
    y: 3.26974081993
    z: 0.0
  - 
    x: -0.157000005245
    y: 4.25600004196
    z: 0.0
channels: []
---
header: 
  seq: 224
  stamp: 
    secs: 1450835106
    nsecs: 779078870
  frame_id: sonar_frame
points: 
  - 
    x: 0.0689999982715
    y: 4.34000015259
    z: 0.0
  - 
    x: 2.11114120483
    y: 2.49909996986
    z: 0.0
  - 
    x: 4.47812700272
    y: 2.57800006866
    z: 0.0
  - 
    x: 2.99732232094
    y: 0.526238501072
    z: 0.0
  - 
    x: 3.02982091904
    y: -0.531968891621
    z: 0.0
  - 
    x: 3.6354842186
    y: -2.09150004387
    z: 0.0
  - 
    x: 3.32793807983
    y: -3.94922232628
    z: 0.0
  - 
    x: 0.0689999982715
    y: -5.1360001564
    z: 0.0
  - 
    x: -0.157000005245
    y: -5.1360001564
    z: 0.0
  - 
    x: -2.42254567146
    y: -2.76415157318
    z: 0.0
  - 
    x: -3.8535220623
    y: -2.16599988937
    z: 0.0
  - 
    x: -5.17903900146
    y: -0.895240902901
    z: 0.0
  - 
    x: -5.17903900146
    y: 0.895240902901
    z: 0.0
  - 
    x: -3.72015428543
    y: 2.08899998665
    z: 0.0
  - 
    x: -2.84678554535
    y: 3.26974081993
    z: 0.0
  - 
    x: -0.157000005245
    y: 4.25600004196
